{
"type": "FeatureCollection",
"crs": { "type": "name", "properties": { "name": "urn:ogc:def:crs:OGC:1.3:CRS84" } },
"features": [
{ "type": "Feature", "properties": { "stop_name": "Capitol Hill", "mode": "Link", "route": "1 Line" }, "geometry": { "type": "Point", "coordinates": [ -122.320129, 47.619077 ] } },
{ "type": "Feature", "properties": { "stop_name": "University of Washington", "mode": "Link", "route": "1 Line" }, "geometry": { "type": "Point", "coordinates": [ -122.30369, 47.649856 ] } },
{ "type": "Feature", "properties": { "stop_name": "Columbia City", "mode": "Link", "route": "1 Line" }, "geometry": { "type": "Point", "coordinates": [ -122.292738, 47.559727 ] } },
{ "type": "Feature", "properties": { "stop_name": "Beacon Hill", "mode": "Link", "route": "1 Line" }, "geometry": { "type": "Point", "coordinates": [ -122.311639, 47.579085 ] } },
{ "type": "Feature", "properties": { "stop_name": "Mount Baker", "mode": "Link", "route": "1 Line" }, "geometry": { "type": "Point", "coordinates": [ -122.297728, 47.576554 ] } },
{ "type": "Feature", "properties": { "stop_name": "Othello", "mode": "Link", "route": "1 Line" }, "geometry": { "type": "Point", "coordinates": [ -122.281557, 47.538 ] } },
{ "type": "Feature", "properties": { "stop_name": "Columbia City", "mode": "Link", "route": "1 Line" }, "geometry": { "type": "Point", "coordinates": [ -122.292676, 47.559743 ] } },
{ "type": "Feature", "properties": { "stop_name": "Stadium", "mode": "Link", "route": "1 Line" }, "geometry": { "type": "Point", "coordinates": [ -122.327266, 47.591109 ] } },
{ "type": "Feature", "properties": { "stop_name": "Stadium", "mode": "Link", "route": "1 Line" }, "geometry": { "type": "Point", "coordinates": [ -122.327108, 47.591112 ] } },
{ "type": "Feature", "properties": { "stop_name": "Othello", "mode": "Link", "route": "1 Line" }, "geometry": { "type": "Point", "coordinates": [ -122.281616, 47.53799 ] } },
{ "type": "Feature", "properties": { "stop_name": "Mount Baker", "mode": "Link", "route": "1 Line" }, "geometry": { "type": "Point", "coordinates": [ -122.297669, 47.576574 ] } },
{ "type": "Feature", "properties": { "stop_name": "Rainier Beach", "mode": "Link", "route": "1 Line" }, "geometry": { "type": "Point", "coordinates": [ -122.279453, 47.522441 ] } },
{ "type": "Feature", "properties": { "stop_name": "Rainier Beach", "mode": "Link", "route": "1 Line" }, "geometry": { "type": "Point", "coordinates": [ -122.279338, 47.522429 ] } },
{ "type": "Feature", "properties": { "stop_name": "U District", "mode": "Link", "route": "1 Line" }, "geometry": { "type": "Point", "coordinates": [ -122.314045, 47.660492 ] } },
{ "type": "Feature", "properties": { "stop_name": "SODO", "mode": "Link", "route": "1 Line" }, "geometry": { "type": "Point", "coordinates": [ -122.327376, 47.581261 ] } },
{ "type": "Feature", "properties": { "stop_name": "SODO", "mode": "Link", "route": "1 Line" }, "geometry": { "type": "Point", "coordinates": [ -122.327434, 47.581263 ] } },
{ "type": "Feature", "properties": { "stop_name": "International District Chinatown", "mode": "Link", "route": "1 Line" }, "geometry": { "type": "Point", "coordinates": [ -122.327957, 47.598448 ] } },
{ "type": "Feature", "properties": { "stop_name": "Westlake", "mode": "Link", "route": "1 Line" }, "geometry": { "type": "Point", "coordinates": [ -122.336895, 47.611567 ] } },
{ "type": "Feature", "properties": { "stop_name": "Pioneer Square", "mode": "Link", "route": "1 Line" }, "geometry": { "type": "Point", "coordinates": [ -122.331662, 47.603166 ] } },
{ "type": "Feature", "properties": { "stop_name": "Symphony", "mode": "Link", "route": "1 Line" }, "geometry": { "type": "Point", "coordinates": [ -122.336249, 47.608211 ] } },
{ "type": "Feature", "properties": { "stop_name": "Capitol Hill", "mode": "Link", "route": "1 Line" }, "geometry": { "type": "Point", "coordinates": [ -122.32028, 47.619075 ] } },
{ "type": "Feature", "properties": { "stop_name": "University of Washington", "mode": "Link", "route": "1 Line" }, "geometry": { "type": "Point", "coordinates": [ -122.303855, 47.649852 ] } },
{ "type": "Feature", "properties": { "stop_name": "Beacon Hill", "mode": "Link", "route": "1 Line" }, "geometry": { "type": "Point", "coordinates": [ -122.311908, 47.579445 ] } },
{ "type": "Feature", "properties": { "stop_name": "U District", "mode": "Link", "route": "1 Line" }, "geometry": { "type": "Point", "coordinates": [ -122.314221, 47.660491 ] } },
{ "type": "Feature", "properties": { "stop_name": "International District Chinatown", "mode": "Link", "route": "1 Line" }, "geometry": { "type": "Point", "coordinates": [ -122.328053, 47.598113 ] } },
{ "type": "Feature", "properties": { "stop_name": "Pioneer Square", "mode": "Link", "route": "1 Line" }, "geometry": { "type": "Point", "coordinates": [ -122.331021, 47.602225 ] } },
{ "type": "Feature", "properties": { "stop_name": "Symphony", "mode": "Link", "route": "1 Line" }, "geometry": { "type": "Point", "coordinates": [ -122.335669, 47.607283 ] } },
{ "type": "Feature", "properties": { "stop_name": "Westlake", "mode": "Link", "route": "1 Line" }, "geometry": { "type": "Point", "coordinates": [ -122.335876, 47.611858 ] } },
{ "type": "Feature", "properties": { "stop_name": "Roosevelt", "mode": "Link", "route": "1 Line" }, "geometry": { "type": "Point", "coordinates": [ -122.316073, 47.676221 ] } },
{ "type": "Feature", "properties": { "stop_name": "Northgate", "mode": "Link", "route": "1 Line" }, "geometry": { "type": "Point", "coordinates": [ -122.328377, 47.703024 ] } },
{ "type": "Feature", "properties": { "stop_name": "Northgate", "mode": "Link", "route": "1 Line" }, "geometry": { "type": "Point", "coordinates": [ -122.328214, 47.703031 ] } },
{ "type": "Feature", "properties": { "stop_name": "Roosevelt", "mode": "Link", "route": "1 Line" }, "geometry": { "type": "Point", "coordinates": [ -122.315894, 47.677071 ] } },
{ "type": "Feature", "properties": { "stop_name": "Seattle Center", "mode": "Monorail", "route": "Monorail" }, "geometry": { "type": "Point", "coordinates": [ -122.349615, 47.621288 ] } },
{ "type": "Feature", "properties": { "stop_name": "Westlake Center", "mode": "Monorail", "route": "Monorail" }, "geometry": { "type": "Point", "coordinates": [ -122.336915, 47.612033 ] } },
{ "type": "Feature", "properties": { "stop_name": "BelRed", "mode": "Link", "route": "2 Line" }, "geometry": { "type": "Point", "coordinates": [ -122.165268, 47.624429 ] } },
{ "type": "Feature", "properties": { "stop_name": "BelRed", "mode": "Link", "route": "2 Line" }, "geometry": { "type": "Point", "coordinates": [ -122.166408, 47.62448 ] } },
{ "type": "Feature", "properties": { "stop_name": "Bellevue Downtown", "mode": "Link", "route": "2 Line" }, "geometry": { "type": "Point", "coordinates": [ -122.191347, 47.615212 ] } },
{ "type": "Feature", "properties": { "stop_name": "Bellevue Downtown", "mode": "Link", "route": "2 Line" }, "geometry": { "type": "Point", "coordinates": [ -122.192575, 47.615259 ] } },
{ "type": "Feature", "properties": { "stop_name": "Downtown Redmond", "mode": "Link", "route": "2 Line" }, "geometry": { "type": "Point", "coordinates": [ -122.119327, 47.671909 ] } },
{ "type": "Feature", "properties": { "stop_name": "Downtown Redmond", "mode": "Link", "route": "2 Line" }, "geometry": { "type": "Point", "coordinates": [ -122.118336, 47.671548 ] } },
{ "type": "Feature", "properties": { "stop_name": "East Main", "mode": "Link", "route": "2 Line" }, "geometry": { "type": "Point", "coordinates": [ -122.191152, 47.608408 ] } },
{ "type": "Feature", "properties": { "stop_name": "East Main", "mode": "Link", "route": "2 Line" }, "geometry": { "type": "Point", "coordinates": [ -122.19118, 47.607711 ] } },
{ "type": "Feature", "properties": { "stop_name": "Judkins Park", "mode": "Link", "route": "2 Line" }, "geometry": { "type": "Point", "coordinates": [ -122.304325, 47.590347 ] } },
{ "type": "Feature", "properties": { "stop_name": "Judkins Park", "mode": "Link", "route": "2 Line" }, "geometry": { "type": "Point", "coordinates": [ -122.304321, 47.590247 ] } },
{ "type": "Feature", "properties": { "stop_name": "Marymoor Village", "mode": "Link", "route": "2 Line" }, "geometry": { "type": "Point", "coordinates": [ -122.109051, 47.667353 ] } },
{ "type": "Feature", "properties": { "stop_name": "Marymoor Village", "mode": "Link", "route": "2 Line" }, "geometry": { "type": "Point", "coordinates": [ -122.110095, 47.667223 ] } },
{ "type": "Feature", "properties": { "stop_name": "Mercer Island", "mode": "Link", "route": "2 Line" }, "geometry": { "type": "Point", "coordinates": [ -122.233182, 47.588129 ] } },
{ "type": "Feature", "properties": { "stop_name": "Mercer Island", "mode": "Link", "route": "2 Line" }, "geometry": { "type": "Point", "coordinates": [ -122.233128, 47.588215 ] } },
{ "type": "Feature", "properties": { "stop_name": "Overlake Village", "mode": "Link", "route": "2 Line" }, "geometry": { "type": "Point", "coordinates": [ -122.138419, 47.636639 ] } },
{ "type": "Feature", "properties": { "stop_name": "Overlake Village", "mode": "Link", "route": "2 Line" }, "geometry": { "type": "Point", "coordinates": [ -122.139241, 47.636137 ] } },
{ "type": "Feature", "properties": { "stop_name": "Redmond Technology", "mode": "Link", "route": "2 Line" }, "geometry": { "type": "Point", "coordinates": [ -122.133655, 47.645211 ] } },
{ "type": "Feature", "properties": { "stop_name": "Redmond Technology", "mode": "Link", "route": "2 Line" }, "geometry": { "type": "Point", "coordinates": [ -122.133622, 47.644419 ] } },
{ "type": "Feature", "properties": { "stop_name": "South Bellevue", "mode": "Link", "route": "2 Line" }, "geometry": { "type": "Point", "coordinates": [ -122.190107, 47.585988 ] } },
{ "type": "Feature", "properties": { "stop_name": "South Bellevue", "mode": "Link", "route": "2 Line" }, "geometry": { "type": "Point", "coordinates": [ -122.190598, 47.586957 ] } },
{ "type": "Feature", "properties": { "stop_name": "Spring District", "mode": "Link", "route": "2 Line" }, "geometry": { "type": "Point", "coordinates": [ -122.178287, 47.623795 ] } },
{ "type": "Feature", "properties": { "stop_name": "Spring District", "mode": "Link", "route": "2 Line" }, "geometry": { "type": "Point", "coordinates": [ -122.178942, 47.623751 ] } },
{ "type": "Feature", "properties": { "stop_name": "Wilburton", "mode": "Link", "route": "2 Line" }, "geometry": { "type": "Point", "coordinates": [ -122.183702, 47.618234 ] } },
{ "type": "Feature", "properties": { "stop_name": "Wilburton", "mode": "Link", "route": "2 Line" }, "geometry": { "type": "Point", "coordinates": [ -122.183894, 47.617914 ] } },
{ "type": "Feature", "properties": { "stop_name": "Aurora Ave N & N 65th St", "mode": "RapidRide", "route": "RapidRide" }, "geometry": { "type": "Point", "coordinates": [ -122.346849, 47.676105 ] } },
{ "type": "Feature", "properties": { "stop_name": "Aurora Ave N & Lynn St", "mode": "RapidRide", "route": "RapidRide" }, "geometry": { "type": "Point", "coordinates": [ -122.345558, 47.638971 ] } },
{ "type": "Feature", "properties": { "stop_name": "Delridge Way SW & Croft Pl SW", "mode": "RapidRide", "route": "RapidRide" }, "geometry": { "type": "Point", "coordinates": [ -122.360794, 47.540574 ] } },
{ "type": "Feature", "properties": { "stop_name": "Fauntleroy Way SW & SW Barton St", "mode": "RapidRide", "route": "RapidRide" }, "geometry": { "type": "Point", "coordinates": [ -122.393002, 47.523003 ] } },
{ "type": "Feature", "properties": { "stop_name": "15th Ave W & W Emerson St", "mode": "RapidRide", "route": "RapidRide" }, "geometry": { "type": "Point", "coordinates": [ -122.376256, 47.653507 ] } },
{ "type": "Feature", "properties": { "stop_name": "California Ave SW & SW Barton St", "mode": "RapidRide", "route": "RapidRide" }, "geometry": { "type": "Point", "coordinates": [ -122.387479, 47.521479 ] } },
{ "type": "Feature", "properties": { "stop_name": "Linden Ave N & N 72nd St", "mode": "RapidRide", "route": "RapidRide" }, "geometry": { "type": "Point", "coordinates": [ -122.346917, 47.681252 ] } },
{ "type": "Feature", "properties": { "stop_name": "15th Ave W & W Emerson St", "mode": "RapidRide", "route": "RapidRide" }, "geometry": { "type": "Point", "coordinates": [ -122.376008, 47.653958 ] } },
{ "type": "Feature", "properties": { "stop_name": "15th Ave W & W Emerson St", "mode": "RapidRide", "route": "RapidRide" }, "geometry": { "type": "Point", "coordinates": [ -122.376404, 47.653506 ] } },
{ "type": "Feature", "properties": { "stop_name": "SW Alaska St & California Ave SW - Bay 3", "mode": "RapidRide", "route": "RapidRide" }, "geometry": { "type": "Point", "coordinates": [ -122.387194, 47.56121 ] } },
{ "type": "Feature", "properties": { "stop_name": "SW Alaska St & California Ave SW - Bay 1", "mode": "RapidRide", "route": "RapidRide" }, "geometry": { "type": "Point", "coordinates": [ -122.387034, 47.561072 ] } },
{ "type": "Feature", "properties": { "stop_name": "Aurora Ave N & N 85th St", "mode": "RapidRide", "route": "RapidRide" }, "geometry": { "type": "Point", "coordinates": [ -122.344684, 47.689875 ] } },
{ "type": "Feature", "properties": { "stop_name": "Aurora Ave N & N 85th St", "mode": "RapidRide", "route": "RapidRide" }, "geometry": { "type": "Point", "coordinates": [ -122.344365, 47.690944 ] } },
{ "type": "Feature", "properties": { "stop_name": "15th Ave NW & NW 85th St", "mode": "RapidRide", "route": "RapidRide" }, "geometry": { "type": "Point", "coordinates": [ -122.376653, 47.690922 ] } },
{ "type": "Feature", "properties": { "stop_name": "15th Ave NW & NW 85th St", "mode": "RapidRide", "route": "RapidRide" }, "geometry": { "type": "Point", "coordinates": [ -122.376959, 47.69013 ] } },
{ "type": "Feature", "properties": { "stop_name": "Aurora Ave N & N 91st St", "mode": "RapidRide", "route": "RapidRide" }, "geometry": { "type": "Point", "coordinates": [ -122.344418, 47.694712 ] } },
{ "type": "Feature", "properties": { "stop_name": "Aurora Ave N & N 90th St", "mode": "RapidRide", "route": "RapidRide" }, "geometry": { "type": "Point", "coordinates": [ -122.344722, 47.693944 ] } },
{ "type": "Feature", "properties": { "stop_name": "3rd Ave & Bell St", "mode": "RapidRide", "route": "RapidRide" }, "geometry": { "type": "Point", "coordinates": [ -122.345275, 47.615105 ] } },
{ "type": "Feature", "properties": { "stop_name": "SODO Busway & S Royal Brougham Way", "mode": "RapidRide", "route": "RapidRide" }, "geometry": { "type": "Point", "coordinates": [ -122.32742, 47.591934 ] } },
{ "type": "Feature", "properties": { "stop_name": "35th Ave SW & SW Roxbury St", "mode": "RapidRide", "route": "RapidRide" }, "geometry": { "type": "Point", "coordinates": [ -122.376755, 47.517724 ] } },
{ "type": "Feature", "properties": { "stop_name": "California Ave SW & SW Barton St", "mode": "RapidRide", "route": "RapidRide" }, "geometry": { "type": "Point", "coordinates": [ -122.38739, 47.521891 ] } },
{ "type": "Feature", "properties": { "stop_name": "Aurora Ave N & N 145th St", "mode": "RapidRide", "route": "RapidRide" }, "geometry": { "type": "Point", "coordinates": [ -122.345192, 47.733618 ] } },
{ "type": "Feature", "properties": { "stop_name": "Aurora Ave N & N 115th St", "mode": "RapidRide", "route": "RapidRide" }, "geometry": { "type": "Point", "coordinates": [ -122.34482, 47.712497 ] } },
{ "type": "Feature", "properties": { "stop_name": "Holman Rd NW & 9th Ave NW", "mode": "RapidRide", "route": "RapidRide" }, "geometry": { "type": "Point", "coordinates": [ -122.368961, 47.69823 ] } },
{ "type": "Feature", "properties": { "stop_name": "California Ave SW & Fauntleroy Way SW", "mode": "RapidRide", "route": "RapidRide" }, "geometry": { "type": "Point", "coordinates": [ -122.387114, 47.545381 ] } },
{ "type": "Feature", "properties": { "stop_name": "Fauntleroy Way SW & California Ave SW", "mode": "RapidRide", "route": "RapidRide" }, "geometry": { "type": "Point", "coordinates": [ -122.387672, 47.544883 ] } },
{ "type": "Feature", "properties": { "stop_name": "Wall St & 5th Ave", "mode": "RapidRide", "route": "RapidRide" }, "geometry": { "type": "Point", "coordinates": [ -122.345155, 47.617577 ] } },
{ "type": "Feature", "properties": { "stop_name": "Delridge Way SW & SW Graham St", "mode": "RapidRide", "route": "RapidRide" }, "geometry": { "type": "Point", "coordinates": [ -122.36293, 47.546756 ] } },
{ "type": "Feature", "properties": { "stop_name": "3rd Ave S & S Main St", "mode": "RapidRide", "route": "RapidRide" }, "geometry": { "type": "Point", "coordinates": [ -122.330384, 47.60028 ] } },
{ "type": "Feature", "properties": { "stop_name": "15th Ave NW & NW 65th St", "mode": "RapidRide", "route": "RapidRide" }, "geometry": { "type": "Point", "coordinates": [ -122.376817, 47.676141 ] } },
{ "type": "Feature", "properties": { "stop_name": "3rd Ave & Cedar St", "mode": "RapidRide", "route": "RapidRide" }, "geometry": { "type": "Point", "coordinates": [ -122.348681, 47.616882 ] } },
{ "type": "Feature", "properties": { "stop_name": "3rd Ave & Vine St", "mode": "RapidRide", "route": "RapidRide" }, "geometry": { "type": "Point", "coordinates": [ -122.348279, 47.616872 ] } },
{ "type": "Feature", "properties": { "stop_name": "Queen Anne Ave N & W Mercer St", "mode": "RapidRide", "route": "RapidRide" }, "geometry": { "type": "Point", "coordinates": [ -122.35681, 47.624147 ] } },
{ "type": "Feature", "properties": { "stop_name": "Mercer St & Queen Anne Ave N", "mode": "RapidRide", "route": "RapidRide" }, "geometry": { "type": "Point", "coordinates": [ -122.35643, 47.624678 ] } },
{ "type": "Feature", "properties": { "stop_name": "Aurora Ave N & Lynn St", "mode": "RapidRide", "route": "RapidRide" }, "geometry": { "type": "Point", "coordinates": [ -122.345684, 47.638957 ] } },
{ "type": "Feature", "properties": { "stop_name": "15th Ave W & W Newton St", "mode": "RapidRide", "route": "RapidRide" }, "geometry": { "type": "Point", "coordinates": [ -122.376014, 47.637 ] } },
{ "type": "Feature", "properties": { "stop_name": "15th Ave NW & NW 60th St", "mode": "RapidRide", "route": "RapidRide" }, "geometry": { "type": "Point", "coordinates": [ -122.37636, 47.672544 ] } },
{ "type": "Feature", "properties": { "stop_name": "15th Ave NW & NW 60th St", "mode": "RapidRide", "route": "RapidRide" }, "geometry": { "type": "Point", "coordinates": [ -122.376045, 47.672214 ] } },
{ "type": "Feature", "properties": { "stop_name": "Aurora Ave N & N 76th St", "mode": "RapidRide", "route": "RapidRide" }, "geometry": { "type": "Point", "coordinates": [ -122.344347, 47.683682 ] } },
{ "type": "Feature", "properties": { "stop_name": "Aurora Ave N & N 95th St", "mode": "RapidRide", "route": "RapidRide" }, "geometry": { "type": "Point", "coordinates": [ -122.344417, 47.698118 ] } },
{ "type": "Feature", "properties": { "stop_name": "Aurora Ave N & N Northgate Way", "mode": "RapidRide", "route": "RapidRide" }, "geometry": { "type": "Point", "coordinates": [ -122.344543, 47.705376 ] } },
{ "type": "Feature", "properties": { "stop_name": "Aurora Ave N & N 115th St", "mode": "RapidRide", "route": "RapidRide" }, "geometry": { "type": "Point", "coordinates": [ -122.344659, 47.712493 ] } },
{ "type": "Feature", "properties": { "stop_name": "Aurora Ave N & N 125th St", "mode": "RapidRide", "route": "RapidRide" }, "geometry": { "type": "Point", "coordinates": [ -122.34476, 47.71933 ] } },
{ "type": "Feature", "properties": { "stop_name": "15th Ave W & W Armour St", "mode": "RapidRide", "route": "RapidRide" }, "geometry": { "type": "Point", "coordinates": [ -122.376416, 47.644987 ] } },
{ "type": "Feature", "properties": { "stop_name": "Aurora Ave N & N 135th St", "mode": "RapidRide", "route": "RapidRide" }, "geometry": { "type": "Point", "coordinates": [ -122.34486, 47.727265 ] } },
{ "type": "Feature", "properties": { "stop_name": "Aurora Ave N & N 135th St", "mode": "RapidRide", "route": "RapidRide" }, "geometry": { "type": "Point", "coordinates": [ -122.34518, 47.726564 ] } },
{ "type": "Feature", "properties": { "stop_name": "Aurora Ave N & N 105th St", "mode": "RapidRide", "route": "RapidRide" }, "geometry": { "type": "Point", "coordinates": [ -122.344856, 47.704718 ] } },
{ "type": "Feature", "properties": { "stop_name": "Aurora Ave N & N 95th St", "mode": "RapidRide", "route": "RapidRide" }, "geometry": { "type": "Point", "coordinates": [ -122.344774, 47.697658 ] } },
{ "type": "Feature", "properties": { "stop_name": "15th Ave NW & NW 60th St", "mode": "RapidRide", "route": "RapidRide" }, "geometry": { "type": "Point", "coordinates": [ -122.376202, 47.67255 ] } },
{ "type": "Feature", "properties": { "stop_name": "3rd Ave & Seneca St", "mode": "RapidRide", "route": "RapidRide" }, "geometry": { "type": "Point", "coordinates": [ -122.335098, 47.606968 ] } },
{ "type": "Feature", "properties": { "stop_name": "SW Roxbury St & 20th Ave SW", "mode": "RapidRide", "route": "RapidRide" }, "geometry": { "type": "Point", "coordinates": [ -122.358861, 47.517275 ] } },
{ "type": "Feature", "properties": { "stop_name": "3rd Ave & Virginia St", "mode": "RapidRide", "route": "RapidRide" }, "geometry": { "type": "Point", "coordinates": [ -122.34132, 47.61255 ] } },
{ "type": "Feature", "properties": { "stop_name": "3rd Ave & Virginia St", "mode": "RapidRide", "route": "RapidRide" }, "geometry": { "type": "Point", "coordinates": [ -122.341384, 47.612799 ] } },
{ "type": "Feature", "properties": { "stop_name": "3rd Ave & Pine St", "mode": "RapidRide", "route": "RapidRide" }, "geometry": { "type": "Point", "coordinates": [ -122.338877, 47.611075 ] } },
{ "type": "Feature", "properties": { "stop_name": "3rd Ave & Seneca St", "mode": "RapidRide", "route": "RapidRide" }, "geometry": { "type": "Point", "coordinates": [ -122.334971, 47.606506 ] } },
{ "type": "Feature", "properties": { "stop_name": "3rd Ave & Madison St", "mode": "RapidRide", "route": "RapidRide" }, "geometry": { "type": "Point", "coordinates": [ -122.333712, 47.60551 ] } },
{ "type": "Feature", "properties": { "stop_name": "Prefontaine Pl S & Yesler Way", "mode": "RapidRide", "route": "RapidRide" }, "geometry": { "type": "Point", "coordinates": [ -122.329737, 47.601603 ] } },
{ "type": "Feature", "properties": { "stop_name": "Aurora Ave N & Galer St", "mode": "RapidRide", "route": "RapidRide" }, "geometry": { "type": "Point", "coordinates": [ -122.34369, 47.632242 ] } },
{ "type": "Feature", "properties": { "stop_name": "Aurora Ave N & Galer St", "mode": "RapidRide", "route": "RapidRide" }, "geometry": { "type": "Point", "coordinates": [ -122.343329, 47.632557 ] } },
{ "type": "Feature", "properties": { "stop_name": "15th Ave NW & NW 70th St", "mode": "RapidRide", "route": "RapidRide" }, "geometry": { "type": "Point", "coordinates": [ -122.376924, 47.678924 ] } },
{ "type": "Feature", "properties": { "stop_name": "15th Ave NW & NW 70th St", "mode": "RapidRide", "route": "RapidRide" }, "geometry": { "type": "Point", "coordinates": [ -122.376624, 47.679781 ] } },
{ "type": "Feature", "properties": { "stop_name": "Aurora Ave N & N 46th St", "mode": "RapidRide", "route": "RapidRide" }, "geometry": { "type": "Point", "coordinates": [ -122.347523, 47.661654 ] } },
{ "type": "Feature", "properties": { "stop_name": "Aurora Ave N & N 46th St", "mode": "RapidRide", "route": "RapidRide" }, "geometry": { "type": "Point", "coordinates": [ -122.347169, 47.661678 ] } },
{ "type": "Feature", "properties": { "stop_name": "Aurora Ave N & Lynn St", "mode": "RapidRide", "route": "RapidRide" }, "geometry": { "type": "Point", "coordinates": [ -122.34514, 47.638761 ] } },
{ "type": "Feature", "properties": { "stop_name": "15th Ave NW & NW 75th St", "mode": "RapidRide", "route": "RapidRide" }, "geometry": { "type": "Point", "coordinates": [ -122.376931, 47.683066 ] } },
{ "type": "Feature", "properties": { "stop_name": "15th Ave NW & NW 75th St", "mode": "RapidRide", "route": "RapidRide" }, "geometry": { "type": "Point", "coordinates": [ -122.376628, 47.68361 ] } },
{ "type": "Feature", "properties": { "stop_name": "Woodland Pl N & N 65th St", "mode": "RapidRide", "route": "RapidRide" }, "geometry": { "type": "Point", "coordinates": [ -122.347153, 47.676149 ] } },
{ "type": "Feature", "properties": { "stop_name": "3rd Ave & Bell St", "mode": "RapidRide", "route": "RapidRide" }, "geometry": { "type": "Point", "coordinates": [ -122.344663, 47.614508 ] } },
{ "type": "Feature", "properties": { "stop_name": "Delridge Way SW & SW Holly St", "mode": "RapidRide", "route": "RapidRide" }, "geometry": { "type": "Point", "coordinates": [ -122.361366, 47.543057 ] } },
{ "type": "Feature", "properties": { "stop_name": "Delridge Way SW & SW Graham St", "mode": "RapidRide", "route": "RapidRide" }, "geometry": { "type": "Point", "coordinates": [ -122.362812, 47.546772 ] } },
{ "type": "Feature", "properties": { "stop_name": "Delridge Way SW & SW Myrtle St", "mode": "RapidRide", "route": "RapidRide" }, "geometry": { "type": "Point", "coordinates": [ -122.360789, 47.539297 ] } },
{ "type": "Feature", "properties": { "stop_name": "Delridge Way SW & SW Hudson St", "mode": "RapidRide", "route": "RapidRide" }, "geometry": { "type": "Point", "coordinates": [ -122.362788, 47.557357 ] } },
{ "type": "Feature", "properties": { "stop_name": "Delridge Way SW & SW Graham St", "mode": "RapidRide", "route": "RapidRide" }, "geometry": { "type": "Point", "coordinates": [ -122.363136, 47.546923 ] } },
{ "type": "Feature", "properties": { "stop_name": "Delridge Way SW & SW Myrtle St", "mode": "RapidRide", "route": "RapidRide" }, "geometry": { "type": "Point", "coordinates": [ -122.361159, 47.538599 ] } },
{ "type": "Feature", "properties": { "stop_name": "Delridge Way SW & SW Holly St", "mode": "RapidRide", "route": "RapidRide" }, "geometry": { "type": "Point", "coordinates": [ -122.361076, 47.543227 ] } },
{ "type": "Feature", "properties": { "stop_name": "SW Alaska St & California Ave SW", "mode": "RapidRide", "route": "RapidRide" }, "geometry": { "type": "Point", "coordinates": [ -122.387036, 47.561136 ] } },
{ "type": "Feature", "properties": { "stop_name": "SW Alaska St & California Ave SW", "mode": "RapidRide", "route": "RapidRide" }, "geometry": { "type": "Point", "coordinates": [ -122.38719, 47.561136 ] } },
{ "type": "Feature", "properties": { "stop_name": "SW Alaska St & 44th Ave SW - Bay 2", "mode": "RapidRide", "route": "RapidRide" }, "geometry": { "type": "Point", "coordinates": [ -122.387656, 47.561138 ] } },
{ "type": "Feature", "properties": { "stop_name": "SW Alaska St & 44th Ave SW", "mode": "RapidRide", "route": "RapidRide" }, "geometry": { "type": "Point", "coordinates": [ -122.387925, 47.561139 ] } },
{ "type": "Feature", "properties": { "stop_name": "SW Barton St & 26th Ave SW - Bay 1", "mode": "RapidRide", "route": "RapidRide" }, "geometry": { "type": "Point", "coordinates": [ -122.367349, 47.520959 ] } },
{ "type": "Feature", "properties": { "stop_name": "26th Ave SW & SW Barton St - Bay 2", "mode": "RapidRide", "route": "RapidRide" }, "geometry": { "type": "Point", "coordinates": [ -122.365811, 47.520837 ] } },
{ "type": "Feature", "properties": { "stop_name": "SW Barton St & 25th Ave SW - Bay 3", "mode": "RapidRide", "route": "RapidRide" }, "geometry": { "type": "Point", "coordinates": [ -122.364975, 47.52114 ] } },
{ "type": "Feature", "properties": { "stop_name": "26th Ave SW & SW Barton St", "mode": "RapidRide", "route": "RapidRide" }, "geometry": { "type": "Point", "coordinates": [ -122.365902, 47.520834 ] } },
{ "type": "Feature", "properties": { "stop_name": "SW Barton St & 25th Ave SW", "mode": "RapidRide", "route": "RapidRide" }, "geometry": { "type": "Point", "coordinates": [ -122.364973, 47.521026 ] } },
{ "type": "Feature", "properties": { "stop_name": "SW Barton St & 26th Ave SW", "mode": "RapidRide", "route": "RapidRide" }, "geometry": { "type": "Point", "coordinates": [ -122.367346, 47.521034 ] } },
{ "type": "Feature", "properties": { "stop_name": "3rd Ave & Bell St", "mode": "RapidRide", "route": "RapidRide" }, "geometry": { "type": "Point", "coordinates": [ -122.344571, 47.614567 ] } },
{ "type": "Feature", "properties": { "stop_name": "3rd Ave & Bell St", "mode": "RapidRide", "route": "RapidRide" }, "geometry": { "type": "Point", "coordinates": [ -122.345386, 47.615047 ] } },
{ "type": "Feature", "properties": { "stop_name": "3rd Ave & Cherry St", "mode": "RapidRide", "route": "RapidRide" }, "geometry": { "type": "Point", "coordinates": [ -122.332492, 47.603797 ] } },
{ "type": "Feature", "properties": { "stop_name": "3rd Ave & Cherry St", "mode": "RapidRide", "route": "RapidRide" }, "geometry": { "type": "Point", "coordinates": [ -122.332387, 47.603833 ] } },
{ "type": "Feature", "properties": { "stop_name": "3rd Ave & Columbia St", "mode": "RapidRide", "route": "RapidRide" }, "geometry": { "type": "Point", "coordinates": [ -122.33255, 47.604012 ] } },
{ "type": "Feature", "properties": { "stop_name": "3rd Ave & Columbia St", "mode": "RapidRide", "route": "RapidRide" }, "geometry": { "type": "Point", "coordinates": [ -122.332465, 47.60404 ] } },
{ "type": "Feature", "properties": { "stop_name": "Aurora Ave N & Galer St", "mode": "RapidRide", "route": "RapidRide" }, "geometry": { "type": "Point", "coordinates": [ -122.343591, 47.632241 ] } },
{ "type": "Feature", "properties": { "stop_name": "Aurora Ave N & Galer St", "mode": "RapidRide", "route": "RapidRide" }, "geometry": { "type": "Point", "coordinates": [ -122.343406, 47.632558 ] } },
{ "type": "Feature", "properties": { "stop_name": "Aurora Ave N & Lynn St", "mode": "RapidRide", "route": "RapidRide" }, "geometry": { "type": "Point", "coordinates": [ -122.34521, 47.638746 ] } },
{ "type": "Feature", "properties": { "stop_name": "Aurora Ave N & N 100th St", "mode": "RapidRide", "route": "RapidRide" }, "geometry": { "type": "Point", "coordinates": [ -122.344721, 47.701126 ] } },
{ "type": "Feature", "properties": { "stop_name": "Aurora Ave N & N 100th St", "mode": "RapidRide", "route": "RapidRide" }, "geometry": { "type": "Point", "coordinates": [ -122.344824, 47.701127 ] } },
{ "type": "Feature", "properties": { "stop_name": "Aurora Ave N & N 100th St", "mode": "RapidRide", "route": "RapidRide" }, "geometry": { "type": "Point", "coordinates": [ -122.344609, 47.701718 ] } },
{ "type": "Feature", "properties": { "stop_name": "Aurora Ave N & N 100th St", "mode": "RapidRide", "route": "RapidRide" }, "geometry": { "type": "Point", "coordinates": [ -122.344501, 47.701719 ] } },
{ "type": "Feature", "properties": { "stop_name": "Aurora Ave N & N 105th St", "mode": "RapidRide", "route": "RapidRide" }, "geometry": { "type": "Point", "coordinates": [ -122.344777, 47.704716 ] } },
{ "type": "Feature", "properties": { "stop_name": "Aurora Ave N & N Northgate Way", "mode": "RapidRide", "route": "RapidRide" }, "geometry": { "type": "Point", "coordinates": [ -122.344631, 47.705381 ] } },
{ "type": "Feature", "properties": { "stop_name": "Aurora Ave N & N 115th St", "mode": "RapidRide", "route": "RapidRide" }, "geometry": { "type": "Point", "coordinates": [ -122.344806, 47.711868 ] } },
{ "type": "Feature", "properties": { "stop_name": "Aurora Ave N & N 115th St", "mode": "RapidRide", "route": "RapidRide" }, "geometry": { "type": "Point", "coordinates": [ -122.344979, 47.712105 ] } },
{ "type": "Feature", "properties": { "stop_name": "Aurora Ave N & N 125th St", "mode": "RapidRide", "route": "RapidRide" }, "geometry": { "type": "Point", "coordinates": [ -122.344922, 47.719324 ] } },
{ "type": "Feature", "properties": { "stop_name": "Aurora Ave N & N 125th St", "mode": "RapidRide", "route": "RapidRide" }, "geometry": { "type": "Point", "coordinates": [ -122.345114, 47.719782 ] } },
{ "type": "Feature", "properties": { "stop_name": "Aurora Ave N & N 125th St", "mode": "RapidRide", "route": "RapidRide" }, "geometry": { "type": "Point", "coordinates": [ -122.34493, 47.719784 ] } },
{ "type": "Feature", "properties": { "stop_name": "Aurora Ave N & N 130th St", "mode": "RapidRide", "route": "RapidRide" }, "geometry": { "type": "Point", "coordinates": [ -122.344961, 47.722962 ] } },
{ "type": "Feature", "properties": { "stop_name": "Aurora Ave N & N 130th St", "mode": "RapidRide", "route": "RapidRide" }, "geometry": { "type": "Point", "coordinates": [ -122.345149, 47.722968 ] } },
{ "type": "Feature", "properties": { "stop_name": "Aurora Ave N & N 130th St", "mode": "RapidRide", "route": "RapidRide" }, "geometry": { "type": "Point", "coordinates": [ -122.344805, 47.723701 ] } },
{ "type": "Feature", "properties": { "stop_name": "Aurora Ave N & N 130th St", "mode": "RapidRide", "route": "RapidRide" }, "geometry": { "type": "Point", "coordinates": [ -122.344969, 47.723705 ] } },
{ "type": "Feature", "properties": { "stop_name": "Aurora Ave N & N 135th St", "mode": "RapidRide", "route": "RapidRide" }, "geometry": { "type": "Point", "coordinates": [ -122.34501, 47.726548 ] } },
{ "type": "Feature", "properties": { "stop_name": "Aurora Ave N & N 135th St", "mode": "RapidRide", "route": "RapidRide" }, "geometry": { "type": "Point", "coordinates": [ -122.345022, 47.727186 ] } },
{ "type": "Feature", "properties": { "stop_name": "Aurora Ave N & N 145th St", "mode": "RapidRide", "route": "RapidRide" }, "geometry": { "type": "Point", "coordinates": [ -122.345279, 47.733578 ] } },
{ "type": "Feature", "properties": { "stop_name": "Aurora Ave N & N 46th St", "mode": "RapidRide", "route": "RapidRide" }, "geometry": { "type": "Point", "coordinates": [ -122.347399, 47.661657 ] } },
{ "type": "Feature", "properties": { "stop_name": "Aurora Ave N & N 46th St", "mode": "RapidRide", "route": "RapidRide" }, "geometry": { "type": "Point", "coordinates": [ -122.347259, 47.661681 ] } },
{ "type": "Feature", "properties": { "stop_name": "Aurora Ave N & N 65th St", "mode": "RapidRide", "route": "RapidRide" }, "geometry": { "type": "Point", "coordinates": [ -122.346976, 47.67601 ] } },
{ "type": "Feature", "properties": { "stop_name": "Woodland Pl N & N 65th St", "mode": "RapidRide", "route": "RapidRide" }, "geometry": { "type": "Point", "coordinates": [ -122.347063, 47.676214 ] } },
{ "type": "Feature", "properties": { "stop_name": "Linden Ave N & N 72nd St", "mode": "RapidRide", "route": "RapidRide" }, "geometry": { "type": "Point", "coordinates": [ -122.346811, 47.681228 ] } },
{ "type": "Feature", "properties": { "stop_name": "Aurora Ave N & N 76th St", "mode": "RapidRide", "route": "RapidRide" }, "geometry": { "type": "Point", "coordinates": [ -122.34441, 47.683518 ] } },
{ "type": "Feature", "properties": { "stop_name": "Aurora Ave N & N 76th St", "mode": "RapidRide", "route": "RapidRide" }, "geometry": { "type": "Point", "coordinates": [ -122.344576, 47.684176 ] } },
{ "type": "Feature", "properties": { "stop_name": "Aurora Ave N & N 76th St", "mode": "RapidRide", "route": "RapidRide" }, "geometry": { "type": "Point", "coordinates": [ -122.344658, 47.684181 ] } },
{ "type": "Feature", "properties": { "stop_name": "Aurora Ave N & N 80th St", "mode": "RapidRide", "route": "RapidRide" }, "geometry": { "type": "Point", "coordinates": [ -122.344596, 47.686709 ] } },
{ "type": "Feature", "properties": { "stop_name": "Aurora Ave N & N 80th St", "mode": "RapidRide", "route": "RapidRide" }, "geometry": { "type": "Point", "coordinates": [ -122.344683, 47.686711 ] } },
{ "type": "Feature", "properties": { "stop_name": "Aurora Ave N & N 80th St", "mode": "RapidRide", "route": "RapidRide" }, "geometry": { "type": "Point", "coordinates": [ -122.344373, 47.687314 ] } },
{ "type": "Feature", "properties": { "stop_name": "Aurora Ave N & N 80th St", "mode": "RapidRide", "route": "RapidRide" }, "geometry": { "type": "Point", "coordinates": [ -122.34443, 47.687164 ] } },
{ "type": "Feature", "properties": { "stop_name": "Aurora Ave N & N 85th St", "mode": "RapidRide", "route": "RapidRide" }, "geometry": { "type": "Point", "coordinates": [ -122.344598, 47.689981 ] } },
{ "type": "Feature", "properties": { "stop_name": "Aurora Ave N & N 85th St", "mode": "RapidRide", "route": "RapidRide" }, "geometry": { "type": "Point", "coordinates": [ -122.344442, 47.690941 ] } },
{ "type": "Feature", "properties": { "stop_name": "Aurora Ave N & N 90th St", "mode": "RapidRide", "route": "RapidRide" }, "geometry": { "type": "Point", "coordinates": [ -122.344639, 47.69394 ] } },
{ "type": "Feature", "properties": { "stop_name": "Aurora Ave N & N 91st St", "mode": "RapidRide", "route": "RapidRide" }, "geometry": { "type": "Point", "coordinates": [ -122.344491, 47.694713 ] } },
{ "type": "Feature", "properties": { "stop_name": "Aurora Ave N & N 95th St", "mode": "RapidRide", "route": "RapidRide" }, "geometry": { "type": "Point", "coordinates": [ -122.344607, 47.697653 ] } },
{ "type": "Feature", "properties": { "stop_name": "Aurora Ave N & N 95th St", "mode": "RapidRide", "route": "RapidRide" }, "geometry": { "type": "Point", "coordinates": [ -122.344612, 47.69807 ] } },
{ "type": "Feature", "properties": { "stop_name": "3rd Ave & Pike St", "mode": "RapidRide", "route": "RapidRide" }, "geometry": { "type": "Point", "coordinates": [ -122.338142, 47.609954 ] } },
{ "type": "Feature", "properties": { "stop_name": "3rd Ave & Pike St", "mode": "RapidRide", "route": "RapidRide" }, "geometry": { "type": "Point", "coordinates": [ -122.338027, 47.609991 ] } },
{ "type": "Feature", "properties": { "stop_name": "3rd Ave & Pike St", "mode": "RapidRide", "route": "RapidRide" }, "geometry": { "type": "Point", "coordinates": [ -122.338192, 47.61017 ] } },
{ "type": "Feature", "properties": { "stop_name": "3rd Ave & Seneca St", "mode": "RapidRide", "route": "RapidRide" }, "geometry": { "type": "Point", "coordinates": [ -122.334866, 47.606537 ] } },
{ "type": "Feature", "properties": { "stop_name": "3rd Ave & Seneca St", "mode": "RapidRide", "route": "RapidRide" }, "geometry": { "type": "Point", "coordinates": [ -122.335212, 47.606926 ] } },
{ "type": "Feature", "properties": { "stop_name": "3rd Ave & Virginia St", "mode": "RapidRide", "route": "RapidRide" }, "geometry": { "type": "Point", "coordinates": [ -122.341238, 47.612608 ] } },
{ "type": "Feature", "properties": { "stop_name": "3rd Ave & Virginia St", "mode": "RapidRide", "route": "RapidRide" }, "geometry": { "type": "Point", "coordinates": [ -122.341471, 47.612745 ] } },
{ "type": "Feature", "properties": { "stop_name": "Prefontaine Pl S & Yesler Way", "mode": "RapidRide", "route": "RapidRide" }, "geometry": { "type": "Point", "coordinates": [ -122.329811, 47.601519 ] } },
{ "type": "Feature", "properties": { "stop_name": "California Ave SW & SW Barton St", "mode": "RapidRide", "route": "RapidRide" }, "geometry": { "type": "Point", "coordinates": [ -122.387575, 47.521488 ] } },
{ "type": "Feature", "properties": { "stop_name": "California Ave SW & SW Barton St", "mode": "RapidRide", "route": "RapidRide" }, "geometry": { "type": "Point", "coordinates": [ -122.387477, 47.521891 ] } },
{ "type": "Feature", "properties": { "stop_name": "Fauntleroy Way SW & California Ave SW", "mode": "RapidRide", "route": "RapidRide" }, "geometry": { "type": "Point", "coordinates": [ -122.387651, 47.544811 ] } },
{ "type": "Feature", "properties": { "stop_name": "California Ave SW & Fauntleroy Way SW", "mode": "RapidRide", "route": "RapidRide" }, "geometry": { "type": "Point", "coordinates": [ -122.387217, 47.545384 ] } },
{ "type": "Feature", "properties": { "stop_name": "35th Ave SW & SW Barton St", "mode": "RapidRide", "route": "RapidRide" }, "geometry": { "type": "Point", "coordinates": [ -122.376765, 47.520823 ] } },
{ "type": "Feature", "properties": { "stop_name": "Fauntleroy Way SW & SW Barton St", "mode": "RapidRide", "route": "RapidRide" }, "geometry": { "type": "Point", "coordinates": [ -122.393059, 47.522948 ] } },
{ "type": "Feature", "properties": { "stop_name": "Fauntleroy Way SW & SW Barton St", "mode": "RapidRide", "route": "RapidRide" }, "geometry": { "type": "Point", "coordinates": [ -122.393014, 47.523092 ] } },
{ "type": "Feature", "properties": { "stop_name": "Fauntleroy Way SW & SW Barton St", "mode": "RapidRide", "route": "RapidRide" }, "geometry": { "type": "Point", "coordinates": [ -122.392934, 47.523103 ] } },
{ "type": "Feature", "properties": { "stop_name": "SW Avalon Way & SW Bradford St", "mode": "RapidRide", "route": "RapidRide" }, "geometry": { "type": "Point", "coordinates": [ -122.370751, 47.568864 ] } },
{ "type": "Feature", "properties": { "stop_name": "SW Avalon Way & SW Bradford St", "mode": "RapidRide", "route": "RapidRide" }, "geometry": { "type": "Point", "coordinates": [ -122.370901, 47.568868 ] } },
{ "type": "Feature", "properties": { "stop_name": "California Ave SW & SW Findlay St", "mode": "RapidRide", "route": "RapidRide" }, "geometry": { "type": "Point", "coordinates": [ -122.387043, 47.551843 ] } },
{ "type": "Feature", "properties": { "stop_name": "California Ave SW & SW Findlay St", "mode": "RapidRide", "route": "RapidRide" }, "geometry": { "type": "Point", "coordinates": [ -122.387154, 47.551849 ] } },
{ "type": "Feature", "properties": { "stop_name": "California Ave SW & SW Findlay St", "mode": "RapidRide", "route": "RapidRide" }, "geometry": { "type": "Point", "coordinates": [ -122.386936, 47.552316 ] } },
{ "type": "Feature", "properties": { "stop_name": "California Ave SW & SW Findlay St", "mode": "RapidRide", "route": "RapidRide" }, "geometry": { "type": "Point", "coordinates": [ -122.38703, 47.552322 ] } },
{ "type": "Feature", "properties": { "stop_name": "Fauntleroy Way SW & SW Myrtle St", "mode": "RapidRide", "route": "RapidRide" }, "geometry": { "type": "Point", "coordinates": [ -122.390872, 47.539314 ] } },
{ "type": "Feature", "properties": { "stop_name": "Fauntleroy Way SW & SW Myrtle St", "mode": "RapidRide", "route": "RapidRide" }, "geometry": { "type": "Point", "coordinates": [ -122.390999, 47.539336 ] } },
{ "type": "Feature", "properties": { "stop_name": "Fauntleroy Way SW & SW Myrtle St", "mode": "RapidRide", "route": "RapidRide" }, "geometry": { "type": "Point", "coordinates": [ -122.390458, 47.539932 ] } },
{ "type": "Feature", "properties": { "stop_name": "Fauntleroy Way SW & SW Myrtle St", "mode": "RapidRide", "route": "RapidRide" }, "geometry": { "type": "Point", "coordinates": [ -122.390578, 47.539954 ] } },
{ "type": "Feature", "properties": { "stop_name": "Fauntleroy Way SW & SW Rose St", "mode": "RapidRide", "route": "RapidRide" }, "geometry": { "type": "Point", "coordinates": [ -122.392706, 47.529559 ] } },
{ "type": "Feature", "properties": { "stop_name": "Fauntleroy Way SW & SW Rose St", "mode": "RapidRide", "route": "RapidRide" }, "geometry": { "type": "Point", "coordinates": [ -122.392822, 47.529562 ] } },
{ "type": "Feature", "properties": { "stop_name": "Fauntleroy Way SW & SW Rose St", "mode": "RapidRide", "route": "RapidRide" }, "geometry": { "type": "Point", "coordinates": [ -122.392702, 47.529988 ] } },
{ "type": "Feature", "properties": { "stop_name": "Fauntleroy Way SW & SW Rose St", "mode": "RapidRide", "route": "RapidRide" }, "geometry": { "type": "Point", "coordinates": [ -122.392587, 47.529986 ] } },
{ "type": "Feature", "properties": { "stop_name": "35th Ave SW & SW Roxbury St", "mode": "RapidRide", "route": "RapidRide" }, "geometry": { "type": "Point", "coordinates": [ -122.376876, 47.517728 ] } },
{ "type": "Feature", "properties": { "stop_name": "Fauntleroy Way SW & SW Webster St", "mode": "RapidRide", "route": "RapidRide" }, "geometry": { "type": "Point", "coordinates": [ -122.392551, 47.535701 ] } },
{ "type": "Feature", "properties": { "stop_name": "Fauntleroy Way SW & SW Webster St", "mode": "RapidRide", "route": "RapidRide" }, "geometry": { "type": "Point", "coordinates": [ -122.392698, 47.535734 ] } },
{ "type": "Feature", "properties": { "stop_name": "Fauntleroy Way SW & SW Webster St", "mode": "RapidRide", "route": "RapidRide" }, "geometry": { "type": "Point", "coordinates": [ -122.392195, 47.536159 ] } },
{ "type": "Feature", "properties": { "stop_name": "Fauntleroy Way SW & SW Webster St", "mode": "RapidRide", "route": "RapidRide" }, "geometry": { "type": "Point", "coordinates": [ -122.392324, 47.536186 ] } },
{ "type": "Feature", "properties": { "stop_name": "SW Avalon Way & SW Yancy St", "mode": "RapidRide", "route": "RapidRide" }, "geometry": { "type": "Point", "coordinates": [ -122.370777, 47.567968 ] } },
{ "type": "Feature", "properties": { "stop_name": "SW Avalon Way & SW Yancy St", "mode": "RapidRide", "route": "RapidRide" }, "geometry": { "type": "Point", "coordinates": [ -122.370731, 47.567968 ] } },
{ "type": "Feature", "properties": { "stop_name": "SW Roxbury St & 28th Ave SW", "mode": "RapidRide", "route": "RapidRide" }, "geometry": { "type": "Point", "coordinates": [ -122.368145, 47.517398 ] } },
{ "type": "Feature", "properties": { "stop_name": "SW Roxbury St & 28th Ave SW", "mode": "RapidRide", "route": "RapidRide" }, "geometry": { "type": "Point", "coordinates": [ -122.368146, 47.517483 ] } },
{ "type": "Feature", "properties": { "stop_name": "Columbia St & 2nd Ave", "mode": "RapidRide", "route": "RapidRide" }, "geometry": { "type": "Point", "coordinates": [ -122.333634, 47.603799 ] } },
{ "type": "Feature", "properties": { "stop_name": "SW Barton St & 35th Ave SW", "mode": "RapidRide", "route": "RapidRide" }, "geometry": { "type": "Point", "coordinates": [ -122.376358, 47.521 ] } },
{ "type": "Feature", "properties": { "stop_name": "SW Barton St & 35th Ave SW", "mode": "RapidRide", "route": "RapidRide" }, "geometry": { "type": "Point", "coordinates": [ -122.376357, 47.521076 ] } },
{ "type": "Feature", "properties": { "stop_name": "SW Barton St & 35th Ave SW", "mode": "RapidRide", "route": "RapidRide" }, "geometry": { "type": "Point", "coordinates": [ -122.377242, 47.521082 ] } },
{ "type": "Feature", "properties": { "stop_name": "SW Barton St & 35th Ave SW", "mode": "RapidRide", "route": "RapidRide" }, "geometry": { "type": "Point", "coordinates": [ -122.377246, 47.521142 ] } },
{ "type": "Feature", "properties": { "stop_name": "SW Wildwood Pl & 46th Ave SW", "mode": "RapidRide", "route": "RapidRide" }, "geometry": { "type": "Point", "coordinates": [ -122.390843, 47.520918 ] } },
{ "type": "Feature", "properties": { "stop_name": "SW Wildwood Pl & 46th Ave SW", "mode": "RapidRide", "route": "RapidRide" }, "geometry": { "type": "Point", "coordinates": [ -122.390804, 47.520974 ] } },
{ "type": "Feature", "properties": { "stop_name": "SW Wildwood Pl & 45th Ave SW", "mode": "RapidRide", "route": "RapidRide" }, "geometry": { "type": "Point", "coordinates": [ -122.390925, 47.521014 ] } },
{ "type": "Feature", "properties": { "stop_name": "SW Wildwood Pl & 45th Ave SW", "mode": "RapidRide", "route": "RapidRide" }, "geometry": { "type": "Point", "coordinates": [ -122.390869, 47.521087 ] } },
{ "type": "Feature", "properties": { "stop_name": "15th Ave NW & NW 80th St", "mode": "RapidRide", "route": "RapidRide" }, "geometry": { "type": "Point", "coordinates": [ -122.37679, 47.687086 ] } },
{ "type": "Feature", "properties": { "stop_name": "15th Ave NW & NW 80th St", "mode": "RapidRide", "route": "RapidRide" }, "geometry": { "type": "Point", "coordinates": [ -122.376965, 47.686369 ] } },
{ "type": "Feature", "properties": { "stop_name": "15th Ave NW & NW 80th St", "mode": "RapidRide", "route": "RapidRide" }, "geometry": { "type": "Point", "coordinates": [ -122.376641, 47.687092 ] } },
{ "type": "Feature", "properties": { "stop_name": "15th Ave NW & NW Market St", "mode": "RapidRide", "route": "RapidRide" }, "geometry": { "type": "Point", "coordinates": [ -122.376398, 47.668887 ] } },
{ "type": "Feature", "properties": { "stop_name": "15th Ave NW & NW Market St", "mode": "RapidRide", "route": "RapidRide" }, "geometry": { "type": "Point", "coordinates": [ -122.376003, 47.668365 ] } },
{ "type": "Feature", "properties": { "stop_name": "15th Ave NW & NW 65th St", "mode": "RapidRide", "route": "RapidRide" }, "geometry": { "type": "Point", "coordinates": [ -122.376603, 47.676793 ] } },
{ "type": "Feature", "properties": { "stop_name": "Holman Rd NW & Mary Ave NW", "mode": "RapidRide", "route": "RapidRide" }, "geometry": { "type": "Point", "coordinates": [ -122.375831, 47.694548 ] } },
{ "type": "Feature", "properties": { "stop_name": "Holman Rd NW & Mary Ave NW", "mode": "RapidRide", "route": "RapidRide" }, "geometry": { "type": "Point", "coordinates": [ -122.375301, 47.694704 ] } },
{ "type": "Feature", "properties": { "stop_name": "NW 100th Pl & 7th Ave NW", "mode": "RapidRide", "route": "RapidRide" }, "geometry": { "type": "Point", "coordinates": [ -122.363599, 47.702553 ] } },
{ "type": "Feature", "properties": { "stop_name": "1st Ave S & S Lander St", "mode": "RapidRide", "route": "RapidRide" }, "geometry": { "type": "Point", "coordinates": [ -122.334191, 47.579268 ] } },
{ "type": "Feature", "properties": { "stop_name": "3rd Ave & Union St", "mode": "RapidRide", "route": "RapidRide" }, "geometry": { "type": "Point", "coordinates": [ -122.336559, 47.608531 ] } },
{ "type": "Feature", "properties": { "stop_name": "15th Ave NW & NW Leary Way", "mode": "RapidRide", "route": "RapidRide" }, "geometry": { "type": "Point", "coordinates": [ -122.37646, 47.663204 ] } },
{ "type": "Feature", "properties": { "stop_name": "15th Ave NW & NW Leary Way", "mode": "RapidRide", "route": "RapidRide" }, "geometry": { "type": "Point", "coordinates": [ -122.376019, 47.663411 ] } },
{ "type": "Feature", "properties": { "stop_name": "15th Ave W & W Dravus St", "mode": "RapidRide", "route": "RapidRide" }, "geometry": { "type": "Point", "coordinates": [ -122.376867, 47.648129 ] } },
{ "type": "Feature", "properties": { "stop_name": "Elliott Ave W & W Galer St", "mode": "RapidRide", "route": "RapidRide" }, "geometry": { "type": "Point", "coordinates": [ -122.375481, 47.631931 ] } },
{ "type": "Feature", "properties": { "stop_name": "Elliott Ave W & W Galer St", "mode": "RapidRide", "route": "RapidRide" }, "geometry": { "type": "Point", "coordinates": [ -122.375068, 47.631962 ] } },
{ "type": "Feature", "properties": { "stop_name": "Elliott Ave W & W Prospect St", "mode": "RapidRide", "route": "RapidRide" }, "geometry": { "type": "Point", "coordinates": [ -122.371305, 47.628994 ] } },
{ "type": "Feature", "properties": { "stop_name": "Elliott Ave W & W Prospect St", "mode": "RapidRide", "route": "RapidRide" }, "geometry": { "type": "Point", "coordinates": [ -122.371913, 47.629119 ] } },
{ "type": "Feature", "properties": { "stop_name": "Queen Anne Ave N & W John St", "mode": "RapidRide", "route": "RapidRide" }, "geometry": { "type": "Point", "coordinates": [ -122.356858, 47.619283 ] } },
{ "type": "Feature", "properties": { "stop_name": "SODO Busway & S Royal Brougham Way", "mode": "RapidRide", "route": "RapidRide" }, "geometry": { "type": "Point", "coordinates": [ -122.327558, 47.591872 ] } },
{ "type": "Feature", "properties": { "stop_name": "W Mercer St & 3rd Ave W", "mode": "RapidRide", "route": "RapidRide" }, "geometry": { "type": "Point", "coordinates": [ -122.360913, 47.624523 ] } },
{ "type": "Feature", "properties": { "stop_name": "W Mercer St & 3rd Ave W", "mode": "RapidRide", "route": "RapidRide" }, "geometry": { "type": "Point", "coordinates": [ -122.361062, 47.624679 ] } },
{ "type": "Feature", "properties": { "stop_name": "15th Ave W & W Armory Way", "mode": "RapidRide", "route": "RapidRide" }, "geometry": { "type": "Point", "coordinates": [ -122.376384, 47.637361 ] } },
{ "type": "Feature", "properties": { "stop_name": "15th Ave W & W Armour St", "mode": "RapidRide", "route": "RapidRide" }, "geometry": { "type": "Point", "coordinates": [ -122.376053, 47.644998 ] } },
{ "type": "Feature", "properties": { "stop_name": "15th Ave W & W Dravus St", "mode": "RapidRide", "route": "RapidRide" }, "geometry": { "type": "Point", "coordinates": [ -122.37607, 47.649112 ] } },
{ "type": "Feature", "properties": { "stop_name": "15th Ave W & W Wheeler St", "mode": "RapidRide", "route": "RapidRide" }, "geometry": { "type": "Point", "coordinates": [ -122.376402, 47.640271 ] } },
{ "type": "Feature", "properties": { "stop_name": "15th Ave W & W Wheeler St", "mode": "RapidRide", "route": "RapidRide" }, "geometry": { "type": "Point", "coordinates": [ -122.376039, 47.640948 ] } },
{ "type": "Feature", "properties": { "stop_name": "1st Ave N & Republican St", "mode": "RapidRide", "route": "RapidRide" }, "geometry": { "type": "Point", "coordinates": [ -122.355346, 47.622848 ] } },
{ "type": "Feature", "properties": { "stop_name": "Blanchard St & 4th Ave", "mode": "RapidRide", "route": "RapidRide" }, "geometry": { "type": "Point", "coordinates": [ -122.342847, 47.614439 ] } },
{ "type": "Feature", "properties": { "stop_name": "Fairview Ave N & Valley St", "mode": "RapidRide", "route": "RapidRide" }, "geometry": { "type": "Point", "coordinates": [ -122.333532, 47.626548 ] } },
{ "type": "Feature", "properties": { "stop_name": "Fairview Ave N & Valley St", "mode": "RapidRide", "route": "RapidRide" }, "geometry": { "type": "Point", "coordinates": [ -122.333626, 47.626599 ] } },
{ "type": "Feature", "properties": { "stop_name": "SW Alaska St & Fauntleroy Way SW", "mode": "RapidRide", "route": "RapidRide" }, "geometry": { "type": "Point", "coordinates": [ -122.381001, 47.560972 ] } },
{ "type": "Feature", "properties": { "stop_name": "SW Alaska St & Fauntleroy Way SW", "mode": "RapidRide", "route": "RapidRide" }, "geometry": { "type": "Point", "coordinates": [ -122.380486, 47.561157 ] } },
{ "type": "Feature", "properties": { "stop_name": "Valley St & Fairview Ave N", "mode": "RapidRide", "route": "RapidRide" }, "geometry": { "type": "Point", "coordinates": [ -122.333917, 47.625957 ] } },
{ "type": "Feature", "properties": { "stop_name": "Valley St & Fairview Ave N", "mode": "RapidRide", "route": "RapidRide" }, "geometry": { "type": "Point", "coordinates": [ -122.333921, 47.626029 ] } },
{ "type": "Feature", "properties": { "stop_name": "Westlake Ave N & Harrison St", "mode": "RapidRide", "route": "RapidRide" }, "geometry": { "type": "Point", "coordinates": [ -122.338356, 47.621849 ] } },
{ "type": "Feature", "properties": { "stop_name": "Westlake Ave N & Mercer St", "mode": "RapidRide", "route": "RapidRide" }, "geometry": { "type": "Point", "coordinates": [ -122.338348, 47.625566 ] } },
{ "type": "Feature", "properties": { "stop_name": "Delridge Way SW & SW Hudson St", "mode": "RapidRide", "route": "RapidRide" }, "geometry": { "type": "Point", "coordinates": [ -122.363071, 47.5576 ] } },
{ "type": "Feature", "properties": { "stop_name": "E Madison St & 17th Ave", "mode": "RapidRide", "route": "E" }, "geometry": { "type": "Point", "coordinates": [ -122.31042, 47.615599 ] } },
{ "type": "Feature", "properties": { "stop_name": "Terrace St & 5th Ave", "mode": "RapidRide", "route": "RapidRide" }, "geometry": { "type": "Point", "coordinates": [ -122.328079, 47.602119 ] } },
{ "type": "Feature", "properties": { "stop_name": "1st Ave S & S Hanford St", "mode": "RapidRide", "route": "RapidRide" }, "geometry": { "type": "Point", "coordinates": [ -122.334214, 47.575945 ] } },
{ "type": "Feature", "properties": { "stop_name": "1st Ave S & S Holgate St", "mode": "RapidRide", "route": "RapidRide" }, "geometry": { "type": "Point", "coordinates": [ -122.334196, 47.585739 ] } },
{ "type": "Feature", "properties": { "stop_name": "Delridge Way SW & SW Genesee St", "mode": "RapidRide", "route": "RapidRide" }, "geometry": { "type": "Point", "coordinates": [ -122.363323, 47.564514 ] } },
{ "type": "Feature", "properties": { "stop_name": "Delridge Way SW & SW Hudson St", "mode": "RapidRide", "route": "RapidRide" }, "geometry": { "type": "Point", "coordinates": [ -122.362904, 47.557353 ] } },
{ "type": "Feature", "properties": { "stop_name": "SW Alaska St & 42nd Ave SW", "mode": "RapidRide", "route": "RapidRide" }, "geometry": { "type": "Point", "coordinates": [ -122.384976, 47.56108 ] } },
{ "type": "Feature", "properties": { "stop_name": "SW Alaska St & 42nd Ave SW", "mode": "RapidRide", "route": "RapidRide" }, "geometry": { "type": "Point", "coordinates": [ -122.385096, 47.561082 ] } },
{ "type": "Feature", "properties": { "stop_name": "SW Avalon Way & SW Genesee St", "mode": "RapidRide", "route": "RapidRide" }, "geometry": { "type": "Point", "coordinates": [ -122.372345, 47.564989 ] } },
{ "type": "Feature", "properties": { "stop_name": "Delridge Way SW & SW Brandon St", "mode": "RapidRide", "route": "RapidRide" }, "geometry": { "type": "Point", "coordinates": [ -122.362959, 47.553457 ] } },
{ "type": "Feature", "properties": { "stop_name": "Elliott Ave W & W Galer St", "mode": "RapidRide", "route": "RapidRide" }, "geometry": { "type": "Point", "coordinates": [ -122.375349, 47.631989 ] } },
{ "type": "Feature", "properties": { "stop_name": "2nd Ave & James St", "mode": "RapidRide", "route": "RapidRide" }, "geometry": { "type": "Point", "coordinates": [ -122.332709, 47.602509 ] } },
{ "type": "Feature", "properties": { "stop_name": "SW Alaska St & Fauntleroy Way SW", "mode": "RapidRide", "route": "RapidRide" }, "geometry": { "type": "Point", "coordinates": [ -122.380479, 47.56106 ] } },
{ "type": "Feature", "properties": { "stop_name": "SW Alaska St & 36th Ave SW", "mode": "RapidRide", "route": "RapidRide" }, "geometry": { "type": "Point", "coordinates": [ -122.377093, 47.56106 ] } },
{ "type": "Feature", "properties": { "stop_name": "Elliott Ave W & W Galer St", "mode": "RapidRide", "route": "RapidRide" }, "geometry": { "type": "Point", "coordinates": [ -122.375202, 47.63188 ] } },
{ "type": "Feature", "properties": { "stop_name": "Elliott Ave W & W Prospect St", "mode": "RapidRide", "route": "RapidRide" }, "geometry": { "type": "Point", "coordinates": [ -122.371436, 47.628918 ] } },
{ "type": "Feature", "properties": { "stop_name": "Elliott Ave W & W Prospect St", "mode": "RapidRide", "route": "RapidRide" }, "geometry": { "type": "Point", "coordinates": [ -122.371844, 47.629238 ] } },
{ "type": "Feature", "properties": { "stop_name": "Holman Rd NW & Mary Ave NW", "mode": "RapidRide", "route": "RapidRide" }, "geometry": { "type": "Point", "coordinates": [ -122.375693, 47.694489 ] } },
{ "type": "Feature", "properties": { "stop_name": "Holman Rd NW & Mary Ave NW", "mode": "RapidRide", "route": "RapidRide" }, "geometry": { "type": "Point", "coordinates": [ -122.375403, 47.694757 ] } },
{ "type": "Feature", "properties": { "stop_name": "Mercer St & Queen Anne Ave N", "mode": "RapidRide", "route": "RapidRide" }, "geometry": { "type": "Point", "coordinates": [ -122.356431, 47.62458 ] } },
{ "type": "Feature", "properties": { "stop_name": "NW 100th Pl & 7th Ave NW", "mode": "RapidRide", "route": "RapidRide" }, "geometry": { "type": "Point", "coordinates": [ -122.363671, 47.702611 ] } },
{ "type": "Feature", "properties": { "stop_name": "Queen Anne Ave N & W John St", "mode": "RapidRide", "route": "RapidRide" }, "geometry": { "type": "Point", "coordinates": [ -122.356758, 47.619283 ] } },
{ "type": "Feature", "properties": { "stop_name": "Queen Anne Ave N & W Mercer St", "mode": "RapidRide", "route": "RapidRide" }, "geometry": { "type": "Point", "coordinates": [ -122.356715, 47.624147 ] } },
{ "type": "Feature", "properties": { "stop_name": "W Mercer St & 3rd Ave W", "mode": "RapidRide", "route": "RapidRide" }, "geometry": { "type": "Point", "coordinates": [ -122.360912, 47.6246 ] } },
{ "type": "Feature", "properties": { "stop_name": "W Mercer St & 3rd Ave W", "mode": "RapidRide", "route": "RapidRide" }, "geometry": { "type": "Point", "coordinates": [ -122.361062, 47.6246 ] } },
{ "type": "Feature", "properties": { "stop_name": "15th Ave NW & NW 60th St", "mode": "RapidRide", "route": "RapidRide" }, "geometry": { "type": "Point", "coordinates": [ -122.376202, 47.672214 ] } },
{ "type": "Feature", "properties": { "stop_name": "15th Ave NW & NW 65th St", "mode": "RapidRide", "route": "RapidRide" }, "geometry": { "type": "Point", "coordinates": [ -122.376638, 47.676192 ] } },
{ "type": "Feature", "properties": { "stop_name": "15th Ave NW & NW 65th St", "mode": "RapidRide", "route": "RapidRide" }, "geometry": { "type": "Point", "coordinates": [ -122.376752, 47.676794 ] } },
{ "type": "Feature", "properties": { "stop_name": "15th Ave NW & NW 70th St", "mode": "RapidRide", "route": "RapidRide" }, "geometry": { "type": "Point", "coordinates": [ -122.376777, 47.678925 ] } },
{ "type": "Feature", "properties": { "stop_name": "15th Ave NW & NW 70th St", "mode": "RapidRide", "route": "RapidRide" }, "geometry": { "type": "Point", "coordinates": [ -122.376784, 47.679781 ] } },
{ "type": "Feature", "properties": { "stop_name": "15th Ave NW & NW 75th St", "mode": "RapidRide", "route": "RapidRide" }, "geometry": { "type": "Point", "coordinates": [ -122.376789, 47.683066 ] } },
{ "type": "Feature", "properties": { "stop_name": "15th Ave NW & NW 75th St", "mode": "RapidRide", "route": "RapidRide" }, "geometry": { "type": "Point", "coordinates": [ -122.376787, 47.68361 ] } },
{ "type": "Feature", "properties": { "stop_name": "15th Ave NW & NW 80th St", "mode": "RapidRide", "route": "RapidRide" }, "geometry": { "type": "Point", "coordinates": [ -122.376786, 47.68637 ] } },
{ "type": "Feature", "properties": { "stop_name": "15th Ave NW & NW 85th St", "mode": "RapidRide", "route": "RapidRide" }, "geometry": { "type": "Point", "coordinates": [ -122.376756, 47.690131 ] } },
{ "type": "Feature", "properties": { "stop_name": "15th Ave NW & NW 85th St", "mode": "RapidRide", "route": "RapidRide" }, "geometry": { "type": "Point", "coordinates": [ -122.376805, 47.690922 ] } },
{ "type": "Feature", "properties": { "stop_name": "15th Ave NW & NW Leary Way", "mode": "RapidRide", "route": "RapidRide" }, "geometry": { "type": "Point", "coordinates": [ -122.37638, 47.663212 ] } },
{ "type": "Feature", "properties": { "stop_name": "15th Ave NW & NW Leary Way", "mode": "RapidRide", "route": "RapidRide" }, "geometry": { "type": "Point", "coordinates": [ -122.376067, 47.663417 ] } },
{ "type": "Feature", "properties": { "stop_name": "15th Ave NW & NW Market St", "mode": "RapidRide", "route": "RapidRide" }, "geometry": { "type": "Point", "coordinates": [ -122.37627, 47.668892 ] } },
{ "type": "Feature", "properties": { "stop_name": "15th Ave W & W Armory Way", "mode": "RapidRide", "route": "RapidRide" }, "geometry": { "type": "Point", "coordinates": [ -122.376207, 47.63736 ] } },
{ "type": "Feature", "properties": { "stop_name": "15th Ave W & W Armour St", "mode": "RapidRide", "route": "RapidRide" }, "geometry": { "type": "Point", "coordinates": [ -122.376235, 47.644988 ] } },
{ "type": "Feature", "properties": { "stop_name": "15th Ave W & W Armour St", "mode": "RapidRide", "route": "RapidRide" }, "geometry": { "type": "Point", "coordinates": [ -122.376235, 47.644997 ] } },
{ "type": "Feature", "properties": { "stop_name": "15th Ave W & W Dravus St", "mode": "RapidRide", "route": "RapidRide" }, "geometry": { "type": "Point", "coordinates": [ -122.376777, 47.648129 ] } },
{ "type": "Feature", "properties": { "stop_name": "15th Ave W & W Dravus St", "mode": "RapidRide", "route": "RapidRide" }, "geometry": { "type": "Point", "coordinates": [ -122.37615, 47.649112 ] } },
{ "type": "Feature", "properties": { "stop_name": "15th Ave W & W Emerson St", "mode": "RapidRide", "route": "RapidRide" }, "geometry": { "type": "Point", "coordinates": [ -122.376157, 47.653956 ] } },
{ "type": "Feature", "properties": { "stop_name": "15th Ave W & W Newton St", "mode": "RapidRide", "route": "RapidRide" }, "geometry": { "type": "Point", "coordinates": [ -122.376276, 47.636994 ] } },
{ "type": "Feature", "properties": { "stop_name": "15th Ave W & W Wheeler St", "mode": "RapidRide", "route": "RapidRide" }, "geometry": { "type": "Point", "coordinates": [ -122.376218, 47.640271 ] } },
{ "type": "Feature", "properties": { "stop_name": "15th Ave W & W Wheeler St", "mode": "RapidRide", "route": "RapidRide" }, "geometry": { "type": "Point", "coordinates": [ -122.376217, 47.640948 ] } },
{ "type": "Feature", "properties": { "stop_name": "1st Ave N & Denny Way", "mode": "RapidRide", "route": "RapidRide" }, "geometry": { "type": "Point", "coordinates": [ -122.355455, 47.619122 ] } },
{ "type": "Feature", "properties": { "stop_name": "1st Ave N & Republican St", "mode": "RapidRide", "route": "RapidRide" }, "geometry": { "type": "Point", "coordinates": [ -122.355436, 47.622848 ] } },
{ "type": "Feature", "properties": { "stop_name": "3rd Ave & Cedar St", "mode": "RapidRide", "route": "RapidRide" }, "geometry": { "type": "Point", "coordinates": [ -122.348606, 47.616941 ] } },
{ "type": "Feature", "properties": { "stop_name": "3rd Ave & Vine St", "mode": "RapidRide", "route": "RapidRide" }, "geometry": { "type": "Point", "coordinates": [ -122.34837, 47.616802 ] } },
{ "type": "Feature", "properties": { "stop_name": "3rd Ave S & S Main St", "mode": "RapidRide", "route": "RapidRide" }, "geometry": { "type": "Point", "coordinates": [ -122.330282, 47.60028 ] } },
{ "type": "Feature", "properties": { "stop_name": "Westlake Ave & 9th Ave", "mode": "RapidRide", "route": "RapidRide" }, "geometry": { "type": "Point", "coordinates": [ -122.338381, 47.617944 ] } },
{ "type": "Feature", "properties": { "stop_name": "Westlake Ave N & Harrison St", "mode": "RapidRide", "route": "RapidRide" }, "geometry": { "type": "Point", "coordinates": [ -122.338466, 47.621474 ] } },
{ "type": "Feature", "properties": { "stop_name": "Westlake Ave N & Mercer St", "mode": "RapidRide", "route": "RapidRide" }, "geometry": { "type": "Point", "coordinates": [ -122.338464, 47.624277 ] } },
{ "type": "Feature", "properties": { "stop_name": "SW Alaska St & Fauntleroy Way SW", "mode": "RapidRide", "route": "RapidRide" }, "geometry": { "type": "Point", "coordinates": [ -122.380998, 47.56106 ] } },
{ "type": "Feature", "properties": { "stop_name": "Westlake Ave & 9th Ave", "mode": "RapidRide", "route": "RapidRide" }, "geometry": { "type": "Point", "coordinates": [ -122.338445, 47.618234 ] } },
{ "type": "Feature", "properties": { "stop_name": "35th Ave SW & SW Avalon Way", "mode": "RapidRide", "route": "RapidRide" }, "geometry": { "type": "Point", "coordinates": [ -122.376162, 47.563521 ] } },
{ "type": "Feature", "properties": { "stop_name": "Westlake Ave N & Mercer St", "mode": "RapidRide", "route": "RapidRide" }, "geometry": { "type": "Point", "coordinates": [ -122.338505, 47.625541 ] } },
{ "type": "Feature", "properties": { "stop_name": "Westlake Ave N & Harrison St", "mode": "RapidRide", "route": "RapidRide" }, "geometry": { "type": "Point", "coordinates": [ -122.338462, 47.62185 ] } },
{ "type": "Feature", "properties": { "stop_name": "35th Ave SW & SW Avalon Way", "mode": "RapidRide", "route": "RapidRide" }, "geometry": { "type": "Point", "coordinates": [ -122.37616, 47.563172 ] } },
{ "type": "Feature", "properties": { "stop_name": "Wall St & 5th Ave", "mode": "RapidRide", "route": "RapidRide" }, "geometry": { "type": "Point", "coordinates": [ -122.345071, 47.617527 ] } },
{ "type": "Feature", "properties": { "stop_name": "2nd Ave Ext S & S Jackson St", "mode": "RapidRide", "route": "RapidRide" }, "geometry": { "type": "Point", "coordinates": [ -122.3299, 47.599449 ] } },
{ "type": "Feature", "properties": { "stop_name": "Queen Anne Ave N & W Harrison St", "mode": "RapidRide", "route": "RapidRide" }, "geometry": { "type": "Point", "coordinates": [ -122.356734, 47.621954 ] } },
{ "type": "Feature", "properties": { "stop_name": "3rd Ave & Pike St", "mode": "RapidRide", "route": "RapidRide" }, "geometry": { "type": "Point", "coordinates": [ -122.337288, 47.60907 ] } },
{ "type": "Feature", "properties": { "stop_name": "Denny Way & 2nd Ave N", "mode": "RapidRide", "route": "RapidRide" }, "geometry": { "type": "Point", "coordinates": [ -122.352055, 47.618587 ] } },
{ "type": "Feature", "properties": { "stop_name": "3rd Ave & Union St", "mode": "RapidRide", "route": "RapidRide" }, "geometry": { "type": "Point", "coordinates": [ -122.33665, 47.608493 ] } },
{ "type": "Feature", "properties": { "stop_name": "4th Ave S & S Royal Brougham Way", "mode": "RapidRide", "route": "RapidRide" }, "geometry": { "type": "Point", "coordinates": [ -122.329059, 47.593335 ] } },
{ "type": "Feature", "properties": { "stop_name": "3rd Ave & Madison St", "mode": "RapidRide", "route": "RapidRide" }, "geometry": { "type": "Point", "coordinates": [ -122.333865, 47.605447 ] } },
{ "type": "Feature", "properties": { "stop_name": "3rd Ave & Pike St", "mode": "RapidRide", "route": "RapidRide" }, "geometry": { "type": "Point", "coordinates": [ -122.33721, 47.609102 ] } },
{ "type": "Feature", "properties": { "stop_name": "Denny Way & Queen Anne Ave N", "mode": "RapidRide", "route": "RapidRide" }, "geometry": { "type": "Point", "coordinates": [ -122.356619, 47.618586 ] } },
{ "type": "Feature", "properties": { "stop_name": "3rd Ave & James St", "mode": "RapidRide", "route": "RapidRide" }, "geometry": { "type": "Point", "coordinates": [ -122.33127, 47.602607 ] } },
{ "type": "Feature", "properties": { "stop_name": "1st Ave & Broad St", "mode": "RapidRide", "route": "RapidRide" }, "geometry": { "type": "Point", "coordinates": [ -122.352869, 47.617118 ] } },
{ "type": "Feature", "properties": { "stop_name": "3rd Ave & Pine St", "mode": "RapidRide", "route": "RapidRide" }, "geometry": { "type": "Point", "coordinates": [ -122.338983, 47.611031 ] } },
{ "type": "Feature", "properties": { "stop_name": "Aurora Ave N & Prospect St", "mode": "RapidRide", "route": "RapidRide" }, "geometry": { "type": "Point", "coordinates": [ -122.343448, 47.629247 ] } },
{ "type": "Feature", "properties": { "stop_name": "Aurora Ave N & Prospect St", "mode": "RapidRide", "route": "RapidRide" }, "geometry": { "type": "Point", "coordinates": [ -122.343615, 47.628692 ] } },
{ "type": "Feature", "properties": { "stop_name": "3rd Ave & Union St", "mode": "RapidRide", "route": "RapidRide" }, "geometry": { "type": "Point", "coordinates": [ -122.336348, 47.608167 ] } },
{ "type": "Feature", "properties": { "stop_name": "3rd Ave & Pike St", "mode": "RapidRide", "route": "RapidRide" }, "geometry": { "type": "Point", "coordinates": [ -122.337645, 47.609575 ] } },
{ "type": "Feature", "properties": { "stop_name": "3rd Ave & Pine St", "mode": "RapidRide", "route": "RapidRide" }, "geometry": { "type": "Point", "coordinates": [ -122.33896, 47.611006 ] } },
{ "type": "Feature", "properties": { "stop_name": "3rd Ave & James St", "mode": "RapidRide", "route": "RapidRide" }, "geometry": { "type": "Point", "coordinates": [ -122.330924, 47.602225 ] } },
{ "type": "Feature", "properties": { "stop_name": "3rd Ave & Marion St", "mode": "RapidRide", "route": "RapidRide" }, "geometry": { "type": "Point", "coordinates": [ -122.333735, 47.605303 ] } },
{ "type": "Feature", "properties": { "stop_name": "E Madison St & 25th Ave E", "mode": "RapidRide", "route": "E" }, "geometry": { "type": "Point", "coordinates": [ -122.300132, 47.620822 ] } },
{ "type": "Feature", "properties": { "stop_name": "E Madison St & 28th Ave E", "mode": "RapidRide", "route": "E" }, "geometry": { "type": "Point", "coordinates": [ -122.296715, 47.623125 ] } },
{ "type": "Feature", "properties": { "stop_name": "E Madison St & 22nd Ave E", "mode": "RapidRide", "route": "E" }, "geometry": { "type": "Point", "coordinates": [ -122.304598, 47.617996 ] } },
{ "type": "Feature", "properties": { "stop_name": "E Madison St & 23rd Ave E", "mode": "RapidRide", "route": "E" }, "geometry": { "type": "Point", "coordinates": [ -122.302349, 47.619428 ] } },
{ "type": "Feature", "properties": { "stop_name": "E Madison St & 23rd Ave E", "mode": "RapidRide", "route": "E" }, "geometry": { "type": "Point", "coordinates": [ -122.302252, 47.619386 ] } },
{ "type": "Feature", "properties": { "stop_name": "E Madison St & 23rd Ave E", "mode": "RapidRide", "route": "E" }, "geometry": { "type": "Point", "coordinates": [ -122.302268, 47.619374 ] } },
{ "type": "Feature", "properties": { "stop_name": "1st Ave S & Yesler Way", "mode": "RapidRide", "route": "RapidRide" }, "geometry": { "type": "Point", "coordinates": [ -122.334231, 47.601457 ] } },
{ "type": "Feature", "properties": { "stop_name": "Madison St & 2nd Ave", "mode": "RapidRide", "route": "RapidRide" }, "geometry": { "type": "Point", "coordinates": [ -122.334878, 47.605266 ] } },
{ "type": "Feature", "properties": { "stop_name": "Spring St & 4th Ave", "mode": "RapidRide", "route": "RapidRide" }, "geometry": { "type": "Point", "coordinates": [ -122.333174, 47.606886 ] } },
{ "type": "Feature", "properties": { "stop_name": "Spring St & 4th Ave", "mode": "RapidRide", "route": "RapidRide" }, "geometry": { "type": "Point", "coordinates": [ -122.333231, 47.606948 ] } },
{ "type": "Feature", "properties": { "stop_name": "Lenora St & 4th Ave", "mode": "RapidRide", "route": "RapidRide" }, "geometry": { "type": "Point", "coordinates": [ -122.341591, 47.613639 ] } },
{ "type": "Feature", "properties": { "stop_name": "NW 103rd St & 3rd Ave NW", "mode": "RapidRide", "route": "RapidRide" }, "geometry": { "type": "Point", "coordinates": [ -122.361338, 47.703488 ] } },
{ "type": "Feature", "properties": { "stop_name": "NW 100th Pl & 7th Ave NW", "mode": "RapidRide", "route": "RapidRide" }, "geometry": { "type": "Point", "coordinates": [ -122.363726, 47.702581 ] } },
{ "type": "Feature", "properties": { "stop_name": "Aurora Ave N & Halladay St", "mode": "RapidRide", "route": "RapidRide" }, "geometry": { "type": "Point", "coordinates": [ -122.346987, 47.642141 ] } },
{ "type": "Feature", "properties": { "stop_name": "Aurora Ave N & Crockett St", "mode": "RapidRide", "route": "RapidRide" }, "geometry": { "type": "Point", "coordinates": [ -122.343938, 47.636585 ] } },
{ "type": "Feature", "properties": { "stop_name": "Delridge Way SW & SW Holden St", "mode": "RapidRide", "route": "RapidRide" }, "geometry": { "type": "Point", "coordinates": [ -122.360611, 47.534602 ] } },
{ "type": "Feature", "properties": { "stop_name": "15th Ave NW & NW 87th St", "mode": "RapidRide", "route": "RapidRide" }, "geometry": { "type": "Point", "coordinates": [ -122.37665, 47.692959 ] } },
{ "type": "Feature", "properties": { "stop_name": "Holman Rd NW & 3rd Ave NW", "mode": "RapidRide", "route": "RapidRide" }, "geometry": { "type": "Point", "coordinates": [ -122.361138, 47.702201 ] } },
{ "type": "Feature", "properties": { "stop_name": "Holman Rd NW & 7th Ave NW", "mode": "RapidRide", "route": "RapidRide" }, "geometry": { "type": "Point", "coordinates": [ -122.364977, 47.70026 ] } },
{ "type": "Feature", "properties": { "stop_name": "Holman Rd NW & 9th Ave NW", "mode": "RapidRide", "route": "RapidRide" }, "geometry": { "type": "Point", "coordinates": [ -122.368423, 47.698501 ] } },
{ "type": "Feature", "properties": { "stop_name": "Holman Rd NW & 7th Ave NW", "mode": "RapidRide", "route": "RapidRide" }, "geometry": { "type": "Point", "coordinates": [ -122.364502, 47.700498 ] } },
{ "type": "Feature", "properties": { "stop_name": "Holman Rd NW & 13th Ave NW", "mode": "RapidRide", "route": "RapidRide" }, "geometry": { "type": "Point", "coordinates": [ -122.372446, 47.696433 ] } },
{ "type": "Feature", "properties": { "stop_name": "3rd Ave & Columbia St", "mode": "RapidRide", "route": "RapidRide" }, "geometry": { "type": "Point", "coordinates": [ -122.332837, 47.604324 ] } },
{ "type": "Feature", "properties": { "stop_name": "3rd Ave & Columbia St", "mode": "RapidRide", "route": "RapidRide" }, "geometry": { "type": "Point", "coordinates": [ -122.332942, 47.604293 ] } },
{ "type": "Feature", "properties": { "stop_name": "Yesler Way & 3rd Ave", "mode": "RapidRide", "route": "RapidRide" }, "geometry": { "type": "Point", "coordinates": [ -122.329796, 47.60172 ] } },
{ "type": "Feature", "properties": { "stop_name": "Yesler Way & Prefontaine Pl S", "mode": "RapidRide", "route": "RapidRide" }, "geometry": { "type": "Point", "coordinates": [ -122.329767, 47.60172 ] } },
{ "type": "Feature", "properties": { "stop_name": "Terrace St & 5th Ave", "mode": "RapidRide", "route": "RapidRide" }, "geometry": { "type": "Point", "coordinates": [ -122.328126, 47.602171 ] } },
{ "type": "Feature", "properties": { "stop_name": "Delridge Way SW & SW Trenton St", "mode": "RapidRide", "route": "RapidRide" }, "geometry": { "type": "Point", "coordinates": [ -122.360473, 47.524406 ] } },
{ "type": "Feature", "properties": { "stop_name": "SW Barton Pl & 22nd Ave SW", "mode": "RapidRide", "route": "RapidRide" }, "geometry": { "type": "Point", "coordinates": [ -122.36212, 47.522266 ] } },
{ "type": "Feature", "properties": { "stop_name": "Delridge Way SW & SW Genesee St", "mode": "RapidRide", "route": "RapidRide" }, "geometry": { "type": "Point", "coordinates": [ -122.363318, 47.565043 ] } },
{ "type": "Feature", "properties": { "stop_name": "Delridge Way SW & SW Oregon St", "mode": "RapidRide", "route": "RapidRide" }, "geometry": { "type": "Point", "coordinates": [ -122.363345, 47.563219 ] } },
{ "type": "Feature", "properties": { "stop_name": "Delridge Way SW & SW Andover St", "mode": "RapidRide", "route": "RapidRide" }, "geometry": { "type": "Point", "coordinates": [ -122.363285, 47.568086 ] } },
{ "type": "Feature", "properties": { "stop_name": "Delridge Way SW & SW Andover St", "mode": "RapidRide", "route": "RapidRide" }, "geometry": { "type": "Point", "coordinates": [ -122.363283, 47.568222 ] } },
{ "type": "Feature", "properties": { "stop_name": "Blanchard St & 6th Ave", "mode": "RapidRide", "route": "RapidRide" }, "geometry": { "type": "Point", "coordinates": [ -122.34095, 47.615898 ] } },
{ "type": "Feature", "properties": { "stop_name": "Blanchard St & 6th Ave", "mode": "RapidRide", "route": "RapidRide" }, "geometry": { "type": "Point", "coordinates": [ -122.340881, 47.615856 ] } },
{ "type": "Feature", "properties": { "stop_name": "SW Barton Pl & 22nd Ave SW", "mode": "RapidRide", "route": "RapidRide" }, "geometry": { "type": "Point", "coordinates": [ -122.36206, 47.522229 ] } },
{ "type": "Feature", "properties": { "stop_name": "Delridge Way SW & SW Holly St", "mode": "RapidRide", "route": "RapidRide" }, "geometry": { "type": "Point", "coordinates": [ -122.361194, 47.543217 ] } },
{ "type": "Feature", "properties": { "stop_name": "SW Roxbury St & 20th Ave SW", "mode": "RapidRide", "route": "RapidRide" }, "geometry": { "type": "Point", "coordinates": [ -122.358861, 47.517366 ] } },
{ "type": "Feature", "properties": { "stop_name": "Delridge Way SW & SW Juneau St", "mode": "RapidRide", "route": "RapidRide" }, "geometry": { "type": "Point", "coordinates": [ -122.36298, 47.55024 ] } },
{ "type": "Feature", "properties": { "stop_name": "Delridge Way SW & SW Myrtle St", "mode": "RapidRide", "route": "RapidRide" }, "geometry": { "type": "Point", "coordinates": [ -122.360911, 47.5393 ] } },
{ "type": "Feature", "properties": { "stop_name": "Delridge Way SW & SW Trenton St", "mode": "RapidRide", "route": "RapidRide" }, "geometry": { "type": "Point", "coordinates": [ -122.360473, 47.524368 ] } },
{ "type": "Feature", "properties": { "stop_name": "Delridge Way SW & 21st Ave SW", "mode": "RapidRide", "route": "RapidRide" }, "geometry": { "type": "Point", "coordinates": [ -122.36074, 47.534576 ] } },
{ "type": "Feature", "properties": { "stop_name": "Delridge Way SW & SW Hudson St", "mode": "RapidRide", "route": "RapidRide" }, "geometry": { "type": "Point", "coordinates": [ -122.362902, 47.557599 ] } },
{ "type": "Feature", "properties": { "stop_name": "SW Roxbury St & 16th Ave SW", "mode": "RapidRide", "route": "RapidRide" }, "geometry": { "type": "Point", "coordinates": [ -122.355576, 47.517396 ] } },
{ "type": "Feature", "properties": { "stop_name": "SW Roxbury St & 20th Ave SW", "mode": "RapidRide", "route": "RapidRide" }, "geometry": { "type": "Point", "coordinates": [ -122.359544, 47.517368 ] } },
{ "type": "Feature", "properties": { "stop_name": "SW Roxbury St & 26th Ave SW", "mode": "RapidRide", "route": "RapidRide" }, "geometry": { "type": "Point", "coordinates": [ -122.365711, 47.517376 ] } },
{ "type": "Feature", "properties": { "stop_name": "Delridge Way SW & SW Edmunds St", "mode": "RapidRide", "route": "RapidRide" }, "geometry": { "type": "Point", "coordinates": [ -122.362892, 47.559466 ] } },
{ "type": "Feature", "properties": { "stop_name": "SW Roxbury St & 26th Ave SW", "mode": "RapidRide", "route": "RapidRide" }, "geometry": { "type": "Point", "coordinates": [ -122.365452, 47.517374 ] } },
{ "type": "Feature", "properties": { "stop_name": "Delridge Way SW & SW Webster St", "mode": "RapidRide", "route": "RapidRide" }, "geometry": { "type": "Point", "coordinates": [ -122.361043, 47.535322 ] } },
{ "type": "Feature", "properties": { "stop_name": "Delridge Way SW & SW Kenyon St", "mode": "RapidRide", "route": "RapidRide" }, "geometry": { "type": "Point", "coordinates": [ -122.360451, 47.532094 ] } },
{ "type": "Feature", "properties": { "stop_name": "Delridge Way SW & SW Alaska St", "mode": "RapidRide", "route": "RapidRide" }, "geometry": { "type": "Point", "coordinates": [ -122.362876, 47.560842 ] } },
{ "type": "Feature", "properties": { "stop_name": "Delridge Way SW & SW Thistle St", "mode": "RapidRide", "route": "RapidRide" }, "geometry": { "type": "Point", "coordinates": [ -122.360455, 47.528568 ] } },
{ "type": "Feature", "properties": { "stop_name": "Delridge Way SW & SW Kenyon St", "mode": "RapidRide", "route": "RapidRide" }, "geometry": { "type": "Point", "coordinates": [ -122.360454, 47.531654 ] } },
{ "type": "Feature", "properties": { "stop_name": "Delridge Way SW & SW Brandon St", "mode": "RapidRide", "route": "RapidRide" }, "geometry": { "type": "Point", "coordinates": [ -122.362959, 47.553566 ] } },
{ "type": "Feature", "properties": { "stop_name": "Delridge Way SW & SW Juneau St", "mode": "RapidRide", "route": "RapidRide" }, "geometry": { "type": "Point", "coordinates": [ -122.362998, 47.549949 ] } },
{ "type": "Feature", "properties": { "stop_name": "Delridge Way SW & SW Graham St", "mode": "RapidRide", "route": "RapidRide" }, "geometry": { "type": "Point", "coordinates": [ -122.362993, 47.546935 ] } },
{ "type": "Feature", "properties": { "stop_name": "Delridge Way SW & SW Holly St", "mode": "RapidRide", "route": "RapidRide" }, "geometry": { "type": "Point", "coordinates": [ -122.361192, 47.543051 ] } },
{ "type": "Feature", "properties": { "stop_name": "Delridge Way SW & Croft Pl SW", "mode": "RapidRide", "route": "RapidRide" }, "geometry": { "type": "Point", "coordinates": [ -122.360884, 47.540963 ] } },
{ "type": "Feature", "properties": { "stop_name": "Delridge Way SW & SW Thistle St", "mode": "RapidRide", "route": "RapidRide" }, "geometry": { "type": "Point", "coordinates": [ -122.360458, 47.528049 ] } },
{ "type": "Feature", "properties": { "stop_name": "Delridge Way SW & SW Myrtle St", "mode": "RapidRide", "route": "RapidRide" }, "geometry": { "type": "Point", "coordinates": [ -122.36101, 47.538589 ] } },
{ "type": "Feature", "properties": { "stop_name": "SW Roxbury St & 26th Ave SW", "mode": "RapidRide", "route": "RapidRide" }, "geometry": { "type": "Point", "coordinates": [ -122.365713, 47.517435 ] } },
{ "type": "Feature", "properties": { "stop_name": "Delridge Way SW & SW Thistle St", "mode": "RapidRide", "route": "RapidRide" }, "geometry": { "type": "Point", "coordinates": [ -122.360565, 47.52805 ] } },
{ "type": "Feature", "properties": { "stop_name": "SW Roxbury St & 16th Ave SW - Bay 6", "mode": "RapidRide", "route": "RapidRide" }, "geometry": { "type": "Point", "coordinates": [ -122.355573, 47.517477 ] } },
{ "type": "Feature", "properties": { "stop_name": "SW Roxbury St & 20th Ave SW", "mode": "RapidRide", "route": "RapidRide" }, "geometry": { "type": "Point", "coordinates": [ -122.359543, 47.517435 ] } },
{ "type": "Feature", "properties": { "stop_name": "1st Ave S & S Stacy St", "mode": "RapidRide", "route": "RapidRide" }, "geometry": { "type": "Point", "coordinates": [ -122.334193, 47.581611 ] } },
{ "type": "Feature", "properties": { "stop_name": "SW Roxbury St & 30th Ave SW", "mode": "RapidRide", "route": "RapidRide" }, "geometry": { "type": "Point", "coordinates": [ -122.37118, 47.517434 ] } },
{ "type": "Feature", "properties": { "stop_name": "1st Ave S & S Stacy St", "mode": "RapidRide", "route": "RapidRide" }, "geometry": { "type": "Point", "coordinates": [ -122.334194, 47.582233 ] } },
{ "type": "Feature", "properties": { "stop_name": "1st Ave S & S Holgate St", "mode": "RapidRide", "route": "RapidRide" }, "geometry": { "type": "Point", "coordinates": [ -122.334195, 47.586449 ] } },
{ "type": "Feature", "properties": { "stop_name": "1st Ave S & S Atlantic St", "mode": "RapidRide", "route": "RapidRide" }, "geometry": { "type": "Point", "coordinates": [ -122.334197, 47.589901 ] } },
{ "type": "Feature", "properties": { "stop_name": "35th Ave SW & SW Cambridge St", "mode": "RapidRide", "route": "RapidRide" }, "geometry": { "type": "Point", "coordinates": [ -122.37681, 47.519037 ] } },
{ "type": "Feature", "properties": { "stop_name": "35th Ave SW & SW Cambridge St", "mode": "RapidRide", "route": "RapidRide" }, "geometry": { "type": "Point", "coordinates": [ -122.376793, 47.519498 ] } },
{ "type": "Feature", "properties": { "stop_name": "1st Ave S & S Hanford St", "mode": "RapidRide", "route": "RapidRide" }, "geometry": { "type": "Point", "coordinates": [ -122.334212, 47.575753 ] } },
{ "type": "Feature", "properties": { "stop_name": "SW Avalon Way & SW Genesee St", "mode": "RapidRide", "route": "RapidRide" }, "geometry": { "type": "Point", "coordinates": [ -122.372458, 47.564798 ] } },
{ "type": "Feature", "properties": { "stop_name": "SW Avalon Way & SW Charlestown St", "mode": "RapidRide", "route": "RapidRide" }, "geometry": { "type": "Point", "coordinates": [ -122.370673, 47.570729 ] } },
{ "type": "Feature", "properties": { "stop_name": "Edgar Martinez Dr S & Occidental Ave S", "mode": "RapidRide", "route": "RapidRide" }, "geometry": { "type": "Point", "coordinates": [ -122.333585, 47.590281 ] } },
{ "type": "Feature", "properties": { "stop_name": "1st Ave S & S Lander St", "mode": "RapidRide", "route": "RapidRide" }, "geometry": { "type": "Point", "coordinates": [ -122.334192, 47.579597 ] } },
{ "type": "Feature", "properties": { "stop_name": "SW Alaska St & 35th Ave SW", "mode": "RapidRide", "route": "RapidRide" }, "geometry": { "type": "Point", "coordinates": [ -122.37693, 47.56106 ] } },
{ "type": "Feature", "properties": { "stop_name": "SODO Busway & S Royal Brougham Way", "mode": "RapidRide", "route": "RapidRide" }, "geometry": { "type": "Point", "coordinates": [ -122.327431, 47.592054 ] } },
{ "type": "Feature", "properties": { "stop_name": "2nd Ave Ext S & Yesler Way", "mode": "RapidRide", "route": "RapidRide" }, "geometry": { "type": "Point", "coordinates": [ -122.331741, 47.601478 ] } },
{ "type": "Feature", "properties": { "stop_name": "2nd Ave & Cherry St", "mode": "RapidRide", "route": "RapidRide" }, "geometry": { "type": "Point", "coordinates": [ -122.333264, 47.603124 ] } },
{ "type": "Feature", "properties": { "stop_name": "Holman Rd NW & 13th Ave NW", "mode": "RapidRide", "route": "RapidRide" }, "geometry": { "type": "Point", "coordinates": [ -122.372544, 47.696494 ] } },
{ "type": "Feature", "properties": { "stop_name": "Holman Rd NW & 13th Ave NW", "mode": "RapidRide", "route": "RapidRide" }, "geometry": { "type": "Point", "coordinates": [ -122.372962, 47.696276 ] } },
{ "type": "Feature", "properties": { "stop_name": "1st Ave S & S King St", "mode": "RapidRide", "route": "RapidRide" }, "geometry": { "type": "Point", "coordinates": [ -122.33413, 47.598839 ] } },
{ "type": "Feature", "properties": { "stop_name": "2nd Ave Ext S & S Washington St", "mode": "RapidRide", "route": "RapidRide" }, "geometry": { "type": "Point", "coordinates": [ -122.330844, 47.600497 ] } },
{ "type": "Feature", "properties": { "stop_name": "15th Ave NW & NW Market St", "mode": "RapidRide", "route": "RapidRide" }, "geometry": { "type": "Point", "coordinates": [ -122.376139, 47.668371 ] } },
{ "type": "Feature", "properties": { "stop_name": "15th Ave W & W Newton St", "mode": "RapidRide", "route": "RapidRide" }, "geometry": { "type": "Point", "coordinates": [ -122.376149, 47.636992 ] } },
{ "type": "Feature", "properties": { "stop_name": "15th Ave NW & NW 85th St", "mode": "RapidRide", "route": "RapidRide" }, "geometry": { "type": "Point", "coordinates": [ -122.376877, 47.690142 ] } },
{ "type": "Feature", "properties": { "stop_name": "E Madison St & 24th Ave E", "mode": "RapidRide", "route": "E" }, "geometry": { "type": "Point", "coordinates": [ -122.300615, 47.620414 ] } },
{ "type": "Feature", "properties": { "stop_name": "7th Ave N & Thomas St", "mode": "RapidRide", "route": "RapidRide" }, "geometry": { "type": "Point", "coordinates": [ -122.343778, 47.621107 ] } },
{ "type": "Feature", "properties": { "stop_name": "Madison St & Boylston Ave", "mode": "RapidRide", "route": "RapidRide" }, "geometry": { "type": "Point", "coordinates": [ -122.322542, 47.61043 ] } },
{ "type": "Feature", "properties": { "stop_name": "Spring St & 3rd Ave", "mode": "RapidRide", "route": "RapidRide" }, "geometry": { "type": "Point", "coordinates": [ -122.334969, 47.606136 ] } },
{ "type": "Feature", "properties": { "stop_name": "E Madison St & 17th Ave", "mode": "RapidRide", "route": "E" }, "geometry": { "type": "Point", "coordinates": [ -122.309723, 47.615696 ] } },
{ "type": "Feature", "properties": { "stop_name": "Madison St & 3rd Ave", "mode": "RapidRide", "route": "RapidRide" }, "geometry": { "type": "Point", "coordinates": [ -122.334419, 47.605541 ] } },
{ "type": "Feature", "properties": { "stop_name": "Madison St & 5th Ave", "mode": "RapidRide", "route": "RapidRide" }, "geometry": { "type": "Point", "coordinates": [ -122.331566, 47.606735 ] } },
{ "type": "Feature", "properties": { "stop_name": "Madison St & 8th Ave", "mode": "RapidRide", "route": "RapidRide" }, "geometry": { "type": "Point", "coordinates": [ -122.328763, 47.60784 ] } },
{ "type": "Feature", "properties": { "stop_name": "Madison St & Terry Ave", "mode": "RapidRide", "route": "RapidRide" }, "geometry": { "type": "Point", "coordinates": [ -122.325934, 47.609012 ] } },
{ "type": "Feature", "properties": { "stop_name": "Madison St & Boylston Ave", "mode": "RapidRide", "route": "RapidRide" }, "geometry": { "type": "Point", "coordinates": [ -122.322182, 47.610582 ] } },
{ "type": "Feature", "properties": { "stop_name": "E Madison St & 12th Ave", "mode": "RapidRide", "route": "E" }, "geometry": { "type": "Point", "coordinates": [ -122.316305, 47.613026 ] } },
{ "type": "Feature", "properties": { "stop_name": "E Madison St & 28th Ave E", "mode": "RapidRide", "route": "E" }, "geometry": { "type": "Point", "coordinates": [ -122.296876, 47.623132 ] } },
{ "type": "Feature", "properties": { "stop_name": "E Madison St & Martin L King Jr Way E", "mode": "RapidRide", "route": "E" }, "geometry": { "type": "Point", "coordinates": [ -122.297264, 47.622658 ] } },
{ "type": "Feature", "properties": { "stop_name": "E Madison St & 22nd Ave E", "mode": "RapidRide", "route": "E" }, "geometry": { "type": "Point", "coordinates": [ -122.30394, 47.61813 ] } },
{ "type": "Feature", "properties": { "stop_name": "E Madison St & 12th Ave", "mode": "RapidRide", "route": "E" }, "geometry": { "type": "Point", "coordinates": [ -122.315964, 47.613167 ] } },
{ "type": "Feature", "properties": { "stop_name": "Madison St & Terry Ave", "mode": "RapidRide", "route": "RapidRide" }, "geometry": { "type": "Point", "coordinates": [ -122.325836, 47.609058 ] } },
{ "type": "Feature", "properties": { "stop_name": "Spring St & 8th Ave", "mode": "RapidRide", "route": "RapidRide" }, "geometry": { "type": "Point", "coordinates": [ -122.329297, 47.608534 ] } },
{ "type": "Feature", "properties": { "stop_name": "1st Ave & Spring St", "mode": "RapidRide", "route": "RapidRide" }, "geometry": { "type": "Point", "coordinates": [ -122.336533, 47.605137 ] } },
{ "type": "Feature", "properties": { "stop_name": "Aurora Ave N & Halladay St", "mode": "RapidRide", "route": "RapidRide" }, "geometry": { "type": "Point", "coordinates": [ -122.346756, 47.641966 ] } },
{ "type": "Feature", "properties": { "stop_name": "Aurora Ave N & Crockett St", "mode": "RapidRide", "route": "RapidRide" }, "geometry": { "type": "Point", "coordinates": [ -122.344252, 47.637353 ] } },
{ "type": "Feature", "properties": { "stop_name": "Madison St & Boren Ave", "mode": "RapidRide", "route": "RapidRide" }, "geometry": { "type": "Point", "coordinates": [ -122.324789, 47.609482 ] } },
{ "type": "Feature", "properties": { "stop_name": "Madison St & Boren Ave", "mode": "RapidRide", "route": "RapidRide" }, "geometry": { "type": "Point", "coordinates": [ -122.325554, 47.609165 ] } },
{ "type": "Feature", "properties": { "stop_name": "Madison St & Boren Ave", "mode": "RapidRide", "route": "RapidRide" }, "geometry": { "type": "Point", "coordinates": [ -122.324869, 47.609448 ] } },
{ "type": "Feature", "properties": { "stop_name": "Madison St & Boylston Ave", "mode": "RapidRide", "route": "RapidRide" }, "geometry": { "type": "Point", "coordinates": [ -122.321606, 47.610817 ] } },
{ "type": "Feature", "properties": { "stop_name": "E Madison St & Martin L King Jr Way E", "mode": "RapidRide", "route": "E" }, "geometry": { "type": "Point", "coordinates": [ -122.29733, 47.622709 ] } },
{ "type": "Feature", "properties": { "stop_name": "E Madison St & 24th Ave E", "mode": "RapidRide", "route": "E" }, "geometry": { "type": "Point", "coordinates": [ -122.300664, 47.620456 ] } },
{ "type": "Feature", "properties": { "stop_name": "148th Ave NE & NE 43rd Pl", "mode": "RapidRide", "route": "RapidRide" }, "geometry": { "type": "Point", "coordinates": [ -122.143066, 47.648088 ] } },
{ "type": "Feature", "properties": { "stop_name": "148th Ave NE & NE 55th St", "mode": "RapidRide", "route": "RapidRide" }, "geometry": { "type": "Point", "coordinates": [ -122.143193, 47.65832 ] } },
{ "type": "Feature", "properties": { "stop_name": "148th Ave NE & NE 55th St", "mode": "RapidRide", "route": "RapidRide" }, "geometry": { "type": "Point", "coordinates": [ -122.143356, 47.658296 ] } },
{ "type": "Feature", "properties": { "stop_name": "148th Ave NE & NE 61st St", "mode": "RapidRide", "route": "RapidRide" }, "geometry": { "type": "Point", "coordinates": [ -122.143344, 47.661887 ] } },
{ "type": "Feature", "properties": { "stop_name": "148th Ave NE & NE 61st Way", "mode": "RapidRide", "route": "RapidRide" }, "geometry": { "type": "Point", "coordinates": [ -122.143142, 47.662496 ] } },
{ "type": "Feature", "properties": { "stop_name": "148th Ave NE & NE 66th St", "mode": "RapidRide", "route": "RapidRide" }, "geometry": { "type": "Point", "coordinates": [ -122.14308, 47.665593 ] } },
{ "type": "Feature", "properties": { "stop_name": "148th Avenue Northeast & Northeast 40th Street", "mode": "RapidRide", "route": "RapidRide" }, "geometry": { "type": "Point", "coordinates": [ -122.142863, 47.646893 ] } },
{ "type": "Feature", "properties": { "stop_name": "148th Avenue Northeast & Northeast 40th Street", "mode": "RapidRide", "route": "RapidRide" }, "geometry": { "type": "Point", "coordinates": [ -122.142929, 47.646885 ] } },
{ "type": "Feature", "properties": { "stop_name": "148th Avenue Northeast & Northeast 46th Street", "mode": "RapidRide", "route": "RapidRide" }, "geometry": { "type": "Point", "coordinates": [ -122.143422, 47.652001 ] } },
{ "type": "Feature", "properties": { "stop_name": "148th Avenue Northeast & Northeast 46th Street", "mode": "RapidRide", "route": "RapidRide" }, "geometry": { "type": "Point", "coordinates": [ -122.143141, 47.652706 ] } },
{ "type": "Feature", "properties": { "stop_name": "148th Avenue Northeast & Northeast 46th Street", "mode": "RapidRide", "route": "RapidRide" }, "geometry": { "type": "Point", "coordinates": [ -122.14321, 47.652706 ] } },
{ "type": "Feature", "properties": { "stop_name": "148th Avenue Northeast & Northeast 46th Street", "mode": "RapidRide", "route": "RapidRide" }, "geometry": { "type": "Point", "coordinates": [ -122.143365, 47.651998 ] } },
{ "type": "Feature", "properties": { "stop_name": "148th Avenue Northeast & Northeast 51st Street", "mode": "RapidRide", "route": "RapidRide" }, "geometry": { "type": "Point", "coordinates": [ -122.143465, 47.654692 ] } },
{ "type": "Feature", "properties": { "stop_name": "148th Avenue Northeast & Northeast 51st Street", "mode": "RapidRide", "route": "RapidRide" }, "geometry": { "type": "Point", "coordinates": [ -122.143081, 47.655683 ] } },
{ "type": "Feature", "properties": { "stop_name": "148th Avenue Northeast & Northeast 51st Street", "mode": "RapidRide", "route": "RapidRide" }, "geometry": { "type": "Point", "coordinates": [ -122.143167, 47.655684 ] } },
{ "type": "Feature", "properties": { "stop_name": "148th Avenue Northeast & Northeast 51st Street", "mode": "RapidRide", "route": "RapidRide" }, "geometry": { "type": "Point", "coordinates": [ -122.143378, 47.65469 ] } },
{ "type": "Feature", "properties": { "stop_name": "148th Avenue Northeast & Northeast 87th Street", "mode": "RapidRide", "route": "RapidRide" }, "geometry": { "type": "Point", "coordinates": [ -122.145138, 47.68074 ] } },
{ "type": "Feature", "properties": { "stop_name": "148th Avenue Northeast & Northeast 87th Street", "mode": "RapidRide", "route": "RapidRide" }, "geometry": { "type": "Point", "coordinates": [ -122.144689, 47.681075 ] } },
{ "type": "Feature", "properties": { "stop_name": "148th Avenue Northeast & Northeast 87th Street", "mode": "RapidRide", "route": "RapidRide" }, "geometry": { "type": "Point", "coordinates": [ -122.145271, 47.680777 ] } },
{ "type": "Feature", "properties": { "stop_name": "148th Avenue Northeast & Northeast 87th Street", "mode": "RapidRide", "route": "RapidRide" }, "geometry": { "type": "Point", "coordinates": [ -122.144804, 47.681132 ] } },
{ "type": "Feature", "properties": { "stop_name": "148th Avenue Northeast & Northeast Old Redmond Road", "mode": "RapidRide", "route": "RapidRide" }, "geometry": { "type": "Point", "coordinates": [ -122.143297, 47.667161 ] } },
{ "type": "Feature", "properties": { "stop_name": "148th Avenue Northeast & Northeast Old Redmond Road", "mode": "RapidRide", "route": "RapidRide" }, "geometry": { "type": "Point", "coordinates": [ -122.14303, 47.668499 ] } },
{ "type": "Feature", "properties": { "stop_name": "148th Avenue Northeast & Northeast Old Redmond Road", "mode": "RapidRide", "route": "RapidRide" }, "geometry": { "type": "Point", "coordinates": [ -122.142945, 47.668498 ] } },
{ "type": "Feature", "properties": { "stop_name": "148th Avenue Northeast & Northeast Old Redmond Road", "mode": "RapidRide", "route": "RapidRide" }, "geometry": { "type": "Point", "coordinates": [ -122.143206, 47.667164 ] } },
{ "type": "Feature", "properties": { "stop_name": "148th Avenue Northeast & Northeast Redmond Way", "mode": "RapidRide", "route": "RapidRide" }, "geometry": { "type": "Point", "coordinates": [ -122.142984, 47.674134 ] } },
{ "type": "Feature", "properties": { "stop_name": "148th Avenue Northeast & Northeast Redmond Way", "mode": "RapidRide", "route": "RapidRide" }, "geometry": { "type": "Point", "coordinates": [ -122.143193, 47.67448 ] } },
{ "type": "Feature", "properties": { "stop_name": "148th Avenue Northeast & Northeast Redmond Way", "mode": "RapidRide", "route": "RapidRide" }, "geometry": { "type": "Point", "coordinates": [ -122.143078, 47.674494 ] } },
{ "type": "Feature", "properties": { "stop_name": "148th Avenue Northeast & Northeast Redmond Way", "mode": "RapidRide", "route": "RapidRide" }, "geometry": { "type": "Point", "coordinates": [ -122.142887, 47.674145 ] } },
{ "type": "Feature", "properties": { "stop_name": "156th Ave NE & NE 13th St", "mode": "RapidRide", "route": "RapidRide" }, "geometry": { "type": "Point", "coordinates": [ -122.13236, 47.62152 ] } },